[{"id":1796236,"name":"Shanghai","asciiName":"Shanghai","countryCode":"CN","country":{"en":"China","vi":"Trung Quốc"},"admin1":"","lat":31.2222,"lng":121.4581,"population":24874500,"timezone":""},{"id":1816670,"name":"Beijing","asciiName":"Beijing","countryCode":"CN","country":{"en":"China","vi":"Trung Quốc"},"admin1":"","lat":39.9075,"lng":116.3972,"population":18960744,"timezone":""},{"id":1795565,"name":"Shenzhen","asciiName":"Shenzhen","countryCode":"CN","country":{"en":"China","vi":"Trung Quốc"},"admin1":"","lat":22.5455,"lng":114.0683,"population":17494398,"timezone":""},{"id":1809858,"name":"Guangzhou","asciiName":"Guangzhou","countryCode":"CN","country":{"en":"China","vi":"Trung Quốc"},"admin1":"","lat":23.1167,"lng":113.25,"population":16096724,"timezone":""},{"id":1566083,"name":"Ho Chi Minh City","asciiName":"Ho Chi Minh City","countryCode":"VN","country":{"en":"Vietnam","vi":"Việt Nam"},"admin1":"","lat":10.823,"lng":106.6297,"population":14002598,"timezone":""},{"id":1815286,"name":"Chengdu","asciiName":"Chengdu","countryCode":"CN","country":{"en":"China","vi":"Trung Quốc"},"admin1":"","lat":30.6667,"lng":104.0667,"population":13568357,"timezone":""},{"id":1172451,"name":"Lahore","asciiName":"Lahore","countryCode":"PK","country":{"en":"Pakistan","vi":"Pakistan"},"admin1":"","lat":31.558,"lng":74.3507,"population":13004135,"timezone":""},{"id":1275339,"name":"Mumbai","asciiName":"Mumbai","countryCode":"IN","country":{"en":"India","vi":"Ấn Độ"},"admin1":"","lat":19.0728,"lng":72.8826,"population":12691836,"timezone":""},{"id":1174872,"name":"Karachi","asciiName":"Karachi","countryCode":"PK","country":{"en":"Pakistan","vi":"Pakistan"},"admin1":"","lat":24.8608,"lng":67.0104,"population":11624219,"timezone":""},{"id":1792947,"name":"Tianjin","asciiName":"Tianjin","countryCode":"CN","country":{"en":"China","vi":"Trung Quốc"},"admin1":"","lat":39.1422,"lng":117.1767,"population":11090314,"timezone":""},{"id":1273294,"name":"Delhi","asciiName":"Delhi","countryCode":"IN","country":{"en":"India","vi":"Ấn Độ"},"admin1":"","lat":28.652,"lng":77.2315,"population":11034555,"timezone":""},{"id":1791247,"name":"Wuhan","asciiName":"Wuhan","countryCode":"CN","country":{"en":"China","vi":"Trung Quốc"},"admin1":"","lat":30.5833,"lng":114.2667,"population":10392693,"timezone":""},{"id":1185241,"name":"Dhaka","asciiName":"Dhaka","countryCode":"BD","country":{"en":"Bangladesh","vi":"Bangladesh"},"admin1":"","lat":23.7104,"lng":90.4074,"population":10356500,"timezone":""},{"id":1835848,"name":"Seoul","asciiName":"Seoul","countryCode":"KR","country":{"en":"South Korea","vi":"Hàn Quốc"},"admin1":"","lat":37.566,"lng":126.9784,"population":10349312,"timezone":""},{"id":1850147,"name":"Tokyo","asciiName":"Tokyo","countryCode":"JP","country":{"en":"Japan","vi":"Nhật Bản"},"admin1":"","lat":35.6895,"lng":139.6917,"population":9733276,"timezone":""},{"id":1812545,"name":"Dongguan","asciiName":"Dongguan","countryCode":"CN","country":{"en":"China","vi":"Trung Quốc"},"admin1":"","lat":23.018,"lng":113.7487,"population":9644871,"timezone":""},{"id":1790630,"name":"Xi’an","asciiName":"Xi'an","countryCode":"CN","country":{"en":"China","vi":"Trung Quốc"},"admin1":"","lat":34.2583,"lng":108.9286,"population":9600000,"timezone":""},{"id":1799962,"name":"Nanjing","asciiName":"Nanjing","countryCode":"CN","country":{"en":"China","vi":"Trung Quốc"},"admin1":"","lat":32.0617,"lng":118.7778,"population":9314685,"timezone":""},{"id":1808926,"name":"Hangzhou","asciiName":"Hangzhou","countryCode":"CN","country":{"en":"China","vi":"Trung Quốc"},"admin1":"","lat":30.2937,"lng":120.1614,"population":9236032,"timezone":""},{"id":1811103,"name":"Foshan","asciiName":"Foshan","countryCode":"CN","country":{"en":"China","vi":"Trung Quốc"},"admin1":"","lat":23.0268,"lng":113.1315,"population":9042509,"timezone":""},{"id":1642911,"name":"Jakarta","asciiName":"Jakarta","countryCode":"ID","country":{"en":"Indonesia","vi":"Indonesia"},"admin1":"","lat":-6.2146,"lng":106.8451,"population":8540121,"timezone":""},{"id":1277333,"name":"Bengaluru","asciiName":"Bengaluru","countryCode":"IN","country":{"en":"India","vi":"Ấn Độ"},"admin1":"","lat":12.9719,"lng":77.5937,"population":8495492,"timezone":""},{"id":1581130,"name":"Hanoi","asciiName":"Hanoi","countryCode":"VN","country":{"en":"Vietnam","vi":"Việt Nam"},"admin1":"","lat":21.0245,"lng":105.8412,"population":8053663,"timezone":""},{"id":1668341,"name":"Taipei","asciiName":"Taipei","countryCode":"TW","country":{"en":"Taiwan","vi":"Đài Loan"},"admin1":"","lat":25.0531,"lng":121.5264,"population":7871900,"timezone":""},{"id":1814906,"name":"Chongqing","asciiName":"Chongqing","countryCode":"CN","country":{"en":"China","vi":"Trung Quốc"},"admin1":"","lat":29.5603,"lng":106.5577,"population":7457599,"timezone":""},{"id":1819729,"name":"Hong Kong","asciiName":"Hong Kong","countryCode":"HK","country":{"en":"Hong Kong","vi":"Hồng Kông"},"admin1":"","lat":22.2783,"lng":114.1747,"population":7396076,"timezone":""},{"id":1797929,"name":"Qingdao","asciiName":"Qingdao","countryCode":"CN","country":{"en":"China","vi":"Trung Quốc"},"admin1":"","lat":36.0649,"lng":120.3804,"population":7172451,"timezone":""},{"id":2034937,"name":"Shenyang","asciiName":"Shenyang","countryCode":"CN","country":{"en":"China","vi":"Trung Quốc"},"admin1":"","lat":41.7922,"lng":123.4328,"population":7050000,"timezone":""},{"id":1269843,"name":"Hyderabad","asciiName":"Hyderabad","countryCode":"IN","country":{"en":"India","vi":"Ấn Độ"},"admin1":"","lat":17.384,"lng":78.4564,"population":6993262,"timezone":""},{"id":1886760,"name":"Suzhou","asciiName":"Suzhou","countryCode":"CN","country":{"en":"China","vi":"Trung Quốc"},"admin1":"","lat":31.3041,"lng":120.5954,"population":6715559,"timezone":""},{"id":1279233,"name":"Ahmedabad","asciiName":"Ahmedabad","countryCode":"IN","country":{"en":"India","vi":"Ấn Độ"},"admin1":"","lat":23.0258,"lng":72.5873,"population":6357693,"timezone":""},{"id":1880252,"name":"Singapore","asciiName":"Singapore","countryCode":"SG","country":{"en":"Singapore","vi":"Singapore"},"admin1":"","lat":1.2897,"lng":103.8501,"population":5638700,"timezone":""},{"id":2147714,"name":"Sydney","asciiName":"Sydney","countryCode":"AU","country":{"en":"Australia","vi":"Úc"},"admin1":"","lat":-33.8678,"lng":151.2073,"population":5557233,"timezone":""},{"id":2158177,"name":"Melbourne","asciiName":"Melbourne","countryCode":"AU","country":{"en":"Australia","vi":"Úc"},"admin1":"","lat":-37.814,"lng":144.9633,"population":5350705,"timezone":""},{"id":2037013,"name":"Harbin","asciiName":"Harbin","countryCode":"CN","country":{"en":"China","vi":"Trung Quốc"},"admin1":"","lat":45.75,"lng":126.65,"population":5242897,"timezone":""},{"id":1609350,"name":"Bangkok","asciiName":"Bangkok","countryCode":"TH","country":{"en":"Thailand","vi":"Thái Lan"},"admin1":"","lat":13.754,"lng":100.5014,"population":5104476,"timezone":""},{"id":1808722,"name":"Hefei","asciiName":"Hefei","countryCode":"CN","country":{"en":"China","vi":"Trung Quốc"},"admin1":"","lat":31.8639,"lng":117.2808,"population":5050000,"timezone":""},{"id":1814087,"name":"Dalian","asciiName":"Dalian","countryCode":"CN","country":{"en":"China","vi":"Trung Quốc"},"admin1":"","lat":38.9122,"lng":121.6022,"population":4913879,"timezone":""},{"id":1168197,"name":"Peshawar","asciiName":"Peshawar","countryCode":"PK","country":{"en":"Pakistan","vi":"Pakistan"},"admin1":"","lat":34.008,"lng":71.5785,"population":4758762,"timezone":""},{"id":2038180,"name":"Changchun","asciiName":"Changchun","countryCode":"CN","country":{"en":"China","vi":"Trung Quốc"},"admin1":"","lat":43.88,"lng":125.3228,"population":4714996,"timezone":""},{"id":1264527,"name":"Chennai","asciiName":"Chennai","countryCode":"IN","country":{"en":"India","vi":"Ấn Độ"},"admin1":"","lat":13.0878,"lng":80.2785,"population":4681087,"timezone":""},{"id":1275004,"name":"Kolkata","asciiName":"Kolkata","countryCode":"IN","country":{"en":"India","vi":"Ấn Độ"},"admin1":"","lat":22.5626,"lng":88.363,"population":4631392,"timezone":""},{"id":1790645,"name":"Xiamen","asciiName":"Xiamen","countryCode":"CN","country":{"en":"China","vi":"Trung Quốc"},"admin1":"","lat":24.4798,"lng":118.0819,"population":4617251,"timezone":""},{"id":1255364,"name":"Surat","asciiName":"Surat","countryCode":"IN","country":{"en":"India","vi":"Ấn Độ"},"admin1":"","lat":21.1959,"lng":72.8302,"population":4591246,"timezone":""},{"id":1298824,"name":"Yangon","asciiName":"Yangon","countryCode":"MM","country":{"en":"Myanmar","vi":"Myanmar"},"admin1":"","lat":16.8053,"lng":96.1561,"population":4477638,"timezone":""},{"id":13308620,"name":"Bao'an","asciiName":"Bao'an","countryCode":"CN","country":{"en":"China","vi":"Trung Quốc"},"admin1":"","lat":22.5521,"lng":113.8829,"population":4476554,"timezone":""},{"id":1790923,"name":"Wuxi","asciiName":"Wuxi","countryCode":"CN","country":{"en":"China","vi":"Trung Quốc"},"admin1":"","lat":31.5689,"lng":120.2886,"population":4396835,"timezone":""},{"id":1805753,"name":"Jinan","asciiName":"Jinan","countryCode":"CN","country":{"en":"China","vi":"Trung Quốc"},"admin1":"","lat":36.6683,"lng":116.9972,"population":4335989,"timezone":""},{"id":1793511,"name":"Taiyuan","asciiName":"Taiyuan","countryCode":"CN","country":{"en":"China","vi":"Trung Quốc"},"admin1":"","lat":37.8694,"lng":112.5603,"population":4303673,"timezone":""},{"id":1784658,"name":"Zhengzhou","asciiName":"Zhengzhou","countryCode":"CN","country":{"en":"China","vi":"Trung Quốc"},"admin1":"","lat":34.7578,"lng":113.6486,"population":4253913,"timezone":""},{"id":12908892,"name":"New Taipei City","asciiName":"New Taipei City","countryCode":"TW","country":{"en":"Taiwan","vi":"Đài Loan"},"admin1":"","lat":25.062,"lng":121.457,"population":4004367,"timezone":""},{"id":12747063,"name":"New Territories","asciiName":"New Territories","countryCode":"HK","country":{"en":"Hong Kong","vi":"Hồng Kông"},"admin1":"","lat":22.4244,"lng":114.111,"population":3984077,"timezone":""},{"id":1795270,"name":"Shijiazhuang","asciiName":"Shijiazhuang","countryCode":"CN","country":{"en":"China","vi":"Trung Quốc"},"admin1":"","lat":38.0414,"lng":114.4786,"population":3938513,"timezone":""},{"id":1205733,"name":"Chattogram","asciiName":"Chattogram","countryCode":"BD","country":{"en":"Bangladesh","vi":"Bangladesh"},"admin1":"","lat":22.3384,"lng":91.8317,"population":3920222,"timezone":""},{"id":1804651,"name":"Kunming","asciiName":"Kunming","countryCode":"CN","country":{"en":"China","vi":"Trung Quốc"},"admin1":"","lat":25.0389,"lng":102.7183,"population":3855346,"timezone":""},{"id":6986104,"name":"Zhongshan","asciiName":"Zhongshan","countryCode":"CN","country":{"en":"China","vi":"Trung Quốc"},"admin1":"","lat":22.5231,"lng":113.3791,"population":3841873,"timezone":""},{"id":1799869,"name":"Nanning","asciiName":"Nanning","countryCode":"CN","country":{"en":"China","vi":"Trung Quốc"},"admin1":"","lat":22.8167,"lng":108.3167,"population":3839800,"timezone":""},{"id":1795940,"name":"Shantou","asciiName":"Shantou","countryCode":"CN","country":{"en":"China","vi":"Trung Quốc"},"admin1":"","lat":23.3549,"lng":116.6788,"population":3838900,"timezone":""},{"id":1179400,"name":"Faisalabad","asciiName":"Faisalabad","countryCode":"PK","country":{"en":"Pakistan","vi":"Pakistan"},"admin1":"","lat":31.4155,"lng":73.0897,"population":3800193,"timezone":""},{"id":1848354,"name":"Yokohama","asciiName":"Yokohama","countryCode":"JP","country":{"en":"Japan","vi":"Nhật Bản"},"admin1":"","lat":35.4333,"lng":139.65,"population":3777491,"timezone":""},{"id":1810821,"name":"Fuzhou","asciiName":"Fuzhou","countryCode":"CN","country":{"en":"China","vi":"Trung Quốc"},"admin1":"","lat":26.0614,"lng":119.3061,"population":3740000,"timezone":""},{"id":1799397,"name":"Ningbo","asciiName":"Ningbo","countryCode":"CN","country":{"en":"China","vi":"Trung Quốc"},"admin1":"","lat":29.8782,"lng":121.5495,"population":3731203,"timezone":""},{"id":1798425,"name":"Puyang","asciiName":"Puyang","countryCode":"CN","country":{"en":"China","vi":"Trung Quốc"},"admin1":"","lat":29.4568,"lng":119.8887,"population":3590000,"timezone":""},{"id":1794903,"name":"Shiyan","asciiName":"Shiyan","countryCode":"CN","country":{"en":"China","vi":"Trung Quốc"},"admin1":"","lat":32.6475,"lng":110.7781,"population":3460000,"timezone":""},{"id":1793346,"name":"Tangshan","asciiName":"Tangshan","countryCode":"CN","country":{"en":"China","vi":"Trung Quốc"},"admin1":"","lat":39.6438,"lng":118.1832,"population":3372102,"timezone":""},{"id":1166993,"name":"Rawalpindi","asciiName":"Rawalpindi","countryCode":"PK","country":{"en":"Pakistan","vi":"Pakistan"},"admin1":"","lat":33.5973,"lng":73.0479,"population":3357612,"timezone":""},{"id":13512505,"name":"Lüliang","asciiName":"Lueliang","countryCode":"CN","country":{"en":"China","vi":"Trung Quốc"},"admin1":"","lat":37.5192,"lng":111.1444,"population":3346500,"timezone":""},{"id":1838524,"name":"Busan","asciiName":"Busan","countryCode":"KR","country":{"en":"South Korea","vi":"Hàn Quốc"},"admin1":"","lat":35.1017,"lng":129.03,"population":3343903,"timezone":""},{"id":1815456,"name":"Changzhou","asciiName":"Changzhou","countryCode":"CN","country":{"en":"China","vi":"Trung Quốc"},"admin1":"","lat":31.7736,"lng":119.954,"population":3290918,"timezone":""},{"id":1785286,"name":"Zibo","asciiName":"Zibo","countryCode":"CN","country":{"en":"China","vi":"Trung Quốc"},"admin1":"","lat":36.7906,"lng":118.0633,"population":3129228,"timezone":""},{"id":1259229,"name":"Pune","asciiName":"Pune","countryCode":"IN","country":{"en":"India","vi":"Ấn Độ"},"admin1":"","lat":18.5196,"lng":73.8554,"population":3124458,"timezone":""},{"id":1815577,"name":"Changsha","asciiName":"Changsha","countryCode":"CN","country":{"en":"China","vi":"Trung Quốc"},"admin1":"","lat":28.1987,"lng":112.9709,"population":3093980,"timezone":""},{"id":1692192,"name":"Quezon City","asciiName":"Quezon City","countryCode":"PH","country":{"en":"Philippines","vi":"Philippines"},"admin1":"","lat":14.6488,"lng":121.0509,"population":3084270,"timezone":""},{"id":1269515,"name":"Jaipur","asciiName":"Jaipur","countryCode":"IN","country":{"en":"India","vi":"Ấn Độ"},"admin1":"","lat":26.9196,"lng":75.7878,"population":3046163,"timezone":""},{"id":1843564,"name":"Incheon","asciiName":"Incheon","countryCode":"KR","country":{"en":"South Korea","vi":"Hàn Quốc"},"admin1":"","lat":37.4565,"lng":126.7052,"population":3039450,"timezone":""},{"id":1809461,"name":"Guiyang","asciiName":"Guiyang","countryCode":"CN","country":{"en":"China","vi":"Trung Quốc"},"admin1":"","lat":26.5833,"lng":106.7167,"population":3037159,"timezone":""},{"id":1529102,"name":"Ürümqi","asciiName":"UEruemqi","countryCode":"CN","country":{"en":"China","vi":"Trung Quốc"},"admin1":"","lat":43.801,"lng":87.6005,"population":3029372,"timezone":""},{"id":1804430,"name":"Lanzhou","asciiName":"Lanzhou","countryCode":"CN","country":{"en":"China","vi":"Trung Quốc"},"admin1":"","lat":36.057,"lng":103.8399,"population":3000000,"timezone":""},{"id":1806776,"name":"Huizhou","asciiName":"Huizhou","countryCode":"CN","country":{"en":"China","vi":"Trung Quốc"},"admin1":"","lat":23.1115,"lng":114.4152,"population":2900113,"timezone":""},{"id":1625822,"name":"Surabaya","asciiName":"Surabaya","countryCode":"ID","country":{"en":"Indonesia","vi":"Indonesia"},"admin1":"","lat":-7.2492,"lng":112.7508,"population":2874314,"timezone":""},{"id":1809078,"name":"Haikou","asciiName":"Haikou","countryCode":"CN","country":{"en":"China","vi":"Trung Quốc"},"admin1":"","lat":20.0342,"lng":110.3465,"population":2873358,"timezone":""},{"id":1668399,"name":"Taichung","asciiName":"Taichung","countryCode":"TW","country":{"en":"Taiwan","vi":"Đài Loan"},"admin1":"","lat":24.1469,"lng":120.6839,"population":2850285,"timezone":""},{"id":1267995,"name":"Kanpur","asciiName":"Kanpur","countryCode":"IN","country":{"en":"India","vi":"Ấn Độ"},"admin1":"","lat":26.4652,"lng":80.3498,"population":2823249,"timezone":""},{"id":2174003,"name":"Brisbane","asciiName":"Brisbane","countryCode":"AU","country":{"en":"Australia","vi":"Úc"},"admin1":"","lat":-27.4679,"lng":153.0281,"population":2780063,"timezone":""},{"id":1853909,"name":"Osaka","asciiName":"Osaka","countryCode":"JP","country":{"en":"Japan","vi":"Nhật Bản"},"admin1":"","lat":34.6938,"lng":135.5011,"population":2753862,"timezone":""},{"id":1803318,"name":"Linyi","asciiName":"Linyi","countryCode":"CN","country":{"en":"China","vi":"Trung Quốc"},"admin1":"","lat":35.0631,"lng":118.3428,"population":2743843,"timezone":""},{"id":1816971,"name":"Baoding","asciiName":"Baoding","countryCode":"CN","country":{"en":"China","vi":"Trung Quốc"},"admin1":"","lat":38.8729,"lng":115.4625,"population":2739887,"timezone":""},{"id":1673820,"name":"Kaohsiung","asciiName":"Kaohsiung","countryCode":"TW","country":{"en":"Taiwan","vi":"Đài Loan"},"admin1":"","lat":22.6163,"lng":120.3133,"population":2737660,"timezone":""},{"id":1200109,"name":"Gazipur","asciiName":"Gazipur","countryCode":"BD","country":{"en":"Bangladesh","vi":"Bangladesh"},"admin1":"","lat":23.9984,"lng":90.4223,"population":2674697,"timezone":""},{"id":1791388,"name":"Wenzhou","asciiName":"Wenzhou","countryCode":"CN","country":{"en":"China","vi":"Trung Quốc"},"admin1":"","lat":27.9994,"lng":120.6668,"population":2650000,"timezone":""},{"id":1581298,"name":"Haiphong","asciiName":"Haiphong","countryCode":"VN","country":{"en":"Vietnam","vi":"Việt Nam"},"admin1":"","lat":20.8648,"lng":106.6835,"population":2625200,"timezone":""},{"id":1785725,"name":"Yunfu","asciiName":"Yunfu","countryCode":"CN","country":{"en":"China","vi":"Trung Quốc"},"admin1":"","lat":22.9279,"lng":112.0381,"population":2612800,"timezone":""},{"id":6619347,"name":"Navi Mumbai","asciiName":"Navi Mumbai","countryCode":"IN","country":{"en":"India","vi":"Ấn Độ"},"admin1":"","lat":19.0368,"lng":73.0158,"population":2600000,"timezone":""},{"id":1649378,"name":"Bekasi","asciiName":"Bekasi","countryCode":"ID","country":{"en":"Indonesia","vi":"Indonesia"},"admin1":"","lat":-6.2349,"lng":106.9896,"population":2564940,"timezone":""},{"id":1177662,"name":"Gujranwala","asciiName":"Gujranwala","countryCode":"PK","country":{"en":"Pakistan","vi":"Pakistan"},"admin1":"","lat":32.1557,"lng":74.1871,"population":2511118,"timezone":""},{"id":1797873,"name":"Huai'an","asciiName":"Huai'an","countryCode":"CN","country":{"en":"China","vi":"Trung Quốc"},"admin1":"","lat":33.5886,"lng":119.0192,"population":2494013,"timezone":""},{"id":1264733,"name":"Lucknow","asciiName":"Lucknow","countryCode":"IN","country":{"en":"India","vi":"Ấn Độ"},"admin1":"","lat":26.8393,"lng":80.9231,"population":2472011,"timezone":""},{"id":1650357,"name":"Bandung","asciiName":"Bandung","countryCode":"ID","country":{"en":"Indonesia","vi":"Indonesia"},"admin1":"","lat":-6.9222,"lng":107.6069,"population":2444160,"timezone":""},{"id":1214520,"name":"Medan","asciiName":"Medan","countryCode":"ID","country":{"en":"Indonesia","vi":"Indonesia"},"admin1":"","lat":3.5833,"lng":98.6667,"population":2435252,"timezone":""},{"id":1262180,"name":"Nagpur","asciiName":"Nagpur","countryCode":"IN","country":{"en":"India","vi":"Ấn Độ"},"admin1":"","lat":21.1463,"lng":79.0849,"population":2405665,"timezone":""},{"id":1835329,"name":"Daegu","asciiName":"Daegu","countryCode":"KR","country":{"en":"South Korea","vi":"Hàn Quốc"},"admin1":"","lat":35.8703,"lng":128.5911,"population":2365523,"timezone":""},{"id":1800163,"name":"Nanchang","asciiName":"Nanchang","countryCode":"CN","country":{"en":"China","vi":"Trung Quốc"},"admin1":"","lat":28.684,"lng":115.8531,"population":2357839,"timezone":""},{"id":2036892,"name":"Hohhot","asciiName":"Hohhot","countryCode":"CN","country":{"en":"China","vi":"Trung Quốc"},"admin1":"","lat":40.8106,"lng":111.6522,"population":2350000,"timezone":""},{"id":1856057,"name":"Nagoya","asciiName":"Nagoya","countryCode":"JP","country":{"en":"Japan","vi":"Nhật Bản"},"admin1":"","lat":35.1815,"lng":136.9064,"population":2332176,"timezone":""},{"id":2063523,"name":"Perth","asciiName":"Perth","countryCode":"AU","country":{"en":"Australia","vi":"Úc"},"admin1":"","lat":-31.9522,"lng":115.8614,"population":2309338,"timezone":""},{"id":1795855,"name":"Shaoxing","asciiName":"Shaoxing","countryCode":"CN","country":{"en":"China","vi":"Trung Quốc"},"admin1":"","lat":30.0024,"lng":120.5786,"population":2300000,"timezone":""},{"id":1799722,"name":"Nantong","asciiName":"Nantong","countryCode":"CN","country":{"en":"China","vi":"Trung Quốc"},"admin1":"","lat":32.0303,"lng":120.8747,"population":2273326,"timezone":""},{"id":1819609,"name":"Kowloon","asciiName":"Kowloon","countryCode":"HK","country":{"en":"Hong Kong","vi":"Hồng Kông"},"admin1":"","lat":22.3167,"lng":114.1833,"population":2232339,"timezone":""},{"id":1787093,"name":"Yantai","asciiName":"Yantai","countryCode":"CN","country":{"en":"China","vi":"Trung Quốc"},"admin1":"","lat":37.4765,"lng":121.4408,"population":2227733,"timezone":""},{"id":1790437,"name":"Zhuhai","asciiName":"Zhuhai","countryCode":"CN","country":{"en":"China","vi":"Trung Quốc"},"admin1":"","lat":22.2769,"lng":113.5678,"population":2207090,"timezone":""},{"id":1169825,"name":"Multan","asciiName":"Multan","countryCode":"PK","country":{"en":"Pakistan","vi":"Pakistan"},"admin1":"","lat":30.1968,"lng":71.4782,"population":2169915,"timezone":""},{"id":2038432,"name":"Baotou","asciiName":"Baotou","countryCode":"CN","country":{"en":"China","vi":"Trung Quốc"},"admin1":"","lat":40.6516,"lng":109.8439,"population":2150000,"timezone":""},{"id":1645524,"name":"Depok","asciiName":"Depok","countryCode":"ID","country":{"en":"Indonesia","vi":"Indonesia"},"admin1":"","lat":-6.4,"lng":106.8186,"population":2145400,"timezone":""},{"id":1273865,"name":"Coimbatore","asciiName":"Coimbatore","countryCode":"IN","country":{"en":"India","vi":"Ấn Độ"},"admin1":"","lat":11.0056,"lng":76.9661,"population":2136916,"timezone":""},{"id":12359313,"name":"Qingyang","asciiName":"Qingyang","countryCode":"CN","country":{"en":"China","vi":"Trung Quốc"},"admin1":"","lat":35.7098,"lng":107.6446,"population":2125400,"timezone":""},{"id":1785623,"name":"Kunshan","asciiName":"Kunshan","countryCode":"CN","country":{"en":"China","vi":"Trung Quốc"},"admin1":"","lat":31.3776,"lng":120.9543,"population":2092496,"timezone":""},{"id":1791681,"name":"Weifang","asciiName":"Weifang","countryCode":"CN","country":{"en":"China","vi":"Trung Quốc"},"admin1":"","lat":36.71,"lng":119.1019,"population":2044028,"timezone":""},{"id":1783621,"name":"Zunyi","asciiName":"Zunyi","countryCode":"CN","country":{"en":"China","vi":"Trung Quốc"},"admin1":"","lat":27.6867,"lng":106.9072,"population":2037775,"timezone":""},{"id":10859300,"name":"Lianyungang","asciiName":"Lianyungang","countryCode":"CN","country":{"en":"China","vi":"Trung Quốc"},"admin1":"","lat":34.5985,"lng":119.2156,"population":2001009,"timezone":""},{"id":1269743,"name":"Indore","asciiName":"Indore","countryCode":"IN","country":{"en":"India","vi":"Ấn Độ"},"admin1":"","lat":22.7179,"lng":75.8333,"population":1994397,"timezone":""},{"id":1810638,"name":"Ganzhou","asciiName":"Ganzhou","countryCode":"CN","country":{"en":"China","vi":"Trung Quốc"},"admin1":"","lat":25.8466,"lng":114.9326,"population":1977253,"timezone":""},{"id":2128295,"name":"Sapporo","asciiName":"Sapporo","countryCode":"JP","country":{"en":"Japan","vi":"Nhật Bản"},"admin1":"","lat":43.0667,"lng":141.35,"population":1973832,"timezone":""},{"id":8347664,"name":"Ordos","asciiName":"Ordos","countryCode":"CN","country":{"en":"China","vi":"Trung Quốc"},"admin1":"","lat":39.6086,"lng":109.7816,"population":1940653,"timezone":""},{"id":1176734,"name":"Hyderabad","asciiName":"Hyderabad","countryCode":"PK","country":{"en":"Pakistan","vi":"Pakistan"},"admin1":"","lat":25.3969,"lng":68.3772,"population":1921275,"timezone":""},{"id":1625084,"name":"Tangerang","asciiName":"Tangerang","countryCode":"ID","country":{"en":"Indonesia","vi":"Indonesia"},"admin1":"","lat":-6.1781,"lng":106.63,"population":1912679,"timezone":""},{"id":1797121,"name":"Jieyang","asciiName":"Jieyang","countryCode":"CN","country":{"en":"China","vi":"Trung Quốc"},"admin1":"","lat":23.5418,"lng":116.3658,"population":1899394,"timezone":""},{"id":2036502,"name":"Jilin","asciiName":"Jilin","countryCode":"CN","country":{"en":"China","vi":"Trung Quốc"},"admin1":"","lat":43.8465,"lng":126.5608,"population":1895865,"timezone":""},{"id":1800146,"name":"Nanchong","asciiName":"Nanchong","countryCode":"CN","country":{"en":"China","vi":"Trung Quốc"},"admin1":"","lat":30.7951,"lng":106.0847,"population":1858875,"timezone":""},{"id":1668355,"name":"Tainan","asciiName":"Tainan","countryCode":"TW","country":{"en":"Taiwan","vi":"Đài Loan"},"admin1":"","lat":22.9908,"lng":120.2133,"population":1856642,"timezone":""},{"id":2037799,"name":"Datong","asciiName":"Datong","countryCode":"CN","country":{"en":"China","vi":"Trung Quốc"},"admin1":"","lat":40.0936,"lng":113.2914,"population":1850000,"timezone":""},{"id":1715348,"name":"Davao","asciiName":"Davao","countryCode":"PH","country":{"en":"Philippines","vi":"Philippines"},"admin1":"","lat":7.0731,"lng":125.6128,"population":1848947,"timezone":""},{"id":1254661,"name":"Thāne","asciiName":"Thane","countryCode":"IN","country":{"en":"India","vi":"Ấn Độ"},"admin1":"","lat":19.197,"lng":72.9636,"population":1841488,"timezone":""},{"id":1253573,"name":"Vadodara","asciiName":"Vadodara","countryCode":"IN","country":{"en":"India","vi":"Ấn Độ"},"admin1":"","lat":22.2994,"lng":73.2081,"population":1822221,"timezone":""},{"id":1799629,"name":"Nanyang","asciiName":"Nanyang","countryCode":"CN","country":{"en":"China","vi":"Trung Quốc"},"admin1":"","lat":32.9947,"lng":112.5328,"population":1811812,"timezone":""},{"id":1275841,"name":"Bhopal","asciiName":"Bhopal","countryCode":"IN","country":{"en":"India","vi":"Ấn Độ"},"admin1":"","lat":23.2547,"lng":77.4029,"population":1798218,"timezone":""},{"id":1806299,"name":"Jiangmen","asciiName":"Jiangmen","countryCode":"CN","country":{"en":"China","vi":"Trung Quốc"},"admin1":"","lat":22.5833,"lng":113.0833,"population":1795459,"timezone":""},{"id":1815251,"name":"Jiangyin","asciiName":"Jiangyin","countryCode":"CN","country":{"en":"China","vi":"Trung Quốc"},"admin1":"","lat":31.911,"lng":120.263,"population":1779515,"timezone":""},{"id":1810845,"name":"Fuyang","asciiName":"Fuyang","countryCode":"CN","country":{"en":"China","vi":"Trung Quốc"},"admin1":"","lat":32.9,"lng":115.8167,"population":1768947,"timezone":""},{"id":11838258,"name":"Bayan Nur","asciiName":"Bayan Nur","countryCode":"CN","country":{"en":"China","vi":"Trung Quốc"},"admin1":"","lat":40.7414,"lng":107.386,"population":1760000,"timezone":""},{"id":1815395,"name":"Chaozhou","asciiName":"Chaozhou","countryCode":"CN","country":{"en":"China","vi":"Trung Quốc"},"admin1":"","lat":23.654,"lng":116.6226,"population":1750945,"timezone":""},{"id":1797945,"name":"Qingyuan","asciiName":"Qingyuan","countryCode":"CN","country":{"en":"China","vi":"Trung Quốc"},"admin1":"","lat":23.7,"lng":113.0333,"population":1738424,"timezone":""},{"id":1793724,"name":"Tai’an","asciiName":"Tai'an","countryCode":"CN","country":{"en":"China","vi":"Trung Quốc"},"admin1":"","lat":36.1853,"lng":117.12,"population":1735425,"timezone":""},{"id":1258393,"name":"Rasapūdipalem","asciiName":"Rasapudipalem","countryCode":"IN","country":{"en":"India","vi":"Ấn Độ"},"admin1":"","lat":17.7331,"lng":83.3162,"population":1728128,"timezone":""},{"id":7626690,"name":"Pimpri-Chinchwad","asciiName":"Pimpri-Chinchwad","countryCode":"IN","country":{"en":"India","vi":"Ấn Độ"},"admin1":"","lat":18.6187,"lng":73.8037,"population":1727692,"timezone":""},{"id":1720151,"name":"Caloocan","asciiName":"Caloocan","countryCode":"PH","country":{"en":"Philippines","vi":"Philippines"},"admin1":"","lat":14.6495,"lng":120.9679,"population":1712945,"timezone":""},{"id":1260086,"name":"Patna","asciiName":"Patna","countryCode":"IN","country":{"en":"India","vi":"Ấn Độ"},"admin1":"","lat":25.5941,"lng":85.1356,"population":1684297,"timezone":""},{"id":12165956,"name":"Kallakurichi","asciiName":"Kallakurichi","countryCode":"IN","country":{"en":"India","vi":"Ấn Độ"},"admin1":"","lat":11.7338,"lng":78.9593,"population":1682687,"timezone":""},{"id":1788852,"name":"Xining","asciiName":"Xining","countryCode":"CN","country":{"en":"China","vi":"Trung Quốc"},"admin1":"","lat":36.6255,"lng":101.7574,"population":1677177,"timezone":""},{"id":7283386,"name":"Changshu","asciiName":"Changshu","countryCode":"CN","country":{"en":"China","vi":"Trung Quốc"},"admin1":"","lat":31.6462,"lng":120.7422,"population":1677050,"timezone":""},{"id":1633070,"name":"Palembang","asciiName":"Palembang","countryCode":"ID","country":{"en":"Indonesia","vi":"Indonesia"},"admin1":"","lat":-2.9167,"lng":104.7458,"population":1668848,"timezone":""},{"id":1807681,"name":"Huainan","asciiName":"Huainan","countryCode":"CN","country":{"en":"China","vi":"Trung Quốc"},"admin1":"","lat":32.6264,"lng":116.9969,"population":1666826,"timezone":""},{"id":1627896,"name":"Semarang","asciiName":"Semarang","countryCode":"ID","country":{"en":"Indonesia","vi":"Indonesia"},"admin1":"","lat":-6.9931,"lng":110.4208,"population":1653524,"timezone":""},{"id":1793743,"name":"Suzhou","asciiName":"Suzhou","countryCode":"CN","country":{"en":"China","vi":"Trung Quốc"},"admin1":"","lat":33.6361,"lng":116.9789,"population":1647642,"timezone":""},{"id":1802206,"name":"Lu’an","asciiName":"Lu'an","countryCode":"CN","country":{"en":"China","vi":"Trung Quốc"},"admin1":"","lat":31.7356,"lng":116.5169,"population":1644344,"timezone":""},{"id":1264728,"name":"Ludhiana","asciiName":"Ludhiana","countryCode":"IN","country":{"en":"India","vi":"Ấn Độ"},"admin1":"","lat":30.912,"lng":75.8538,"population":1618879,"timezone":""},{"id":1787746,"name":"Yancheng","asciiName":"Yancheng","countryCode":"CN","country":{"en":"China","vi":"Trung Quốc"},"admin1":"","lat":33.3575,"lng":120.1573,"population":1615717,"timezone":""},{"id":1863967,"name":"Fukuoka","asciiName":"Fukuoka","countryCode":"JP","country":{"en":"Japan","vi":"Nhật Bản"},"admin1":"","lat":33.6,"lng":130.4167,"population":1612392,"timezone":""},{"id":1793505,"name":"Taizhou","asciiName":"Taizhou","countryCode":"CN","country":{"en":"China","vi":"Trung Quốc"},"admin1":"","lat":32.4907,"lng":119.9081,"population":1607108,"timezone":""},{"id":2037860,"name":"Daqing","asciiName":"Daqing","countryCode":"CN","country":{"en":"China","vi":"Trung Quốc"},"admin1":"","lat":46.5833,"lng":125,"population":1604027,"timezone":""},{"id":1701668,"name":"Manila","asciiName":"Manila","countryCode":"PH","country":{"en":"Philippines","vi":"Philippines"},"admin1":"","lat":14.6042,"lng":120.9822,"population":1600000,"timezone":""},{"id":1791236,"name":"Wuhu","asciiName":"Wuhu","countryCode":"CN","country":{"en":"China","vi":"Trung Quốc"},"admin1":"","lat":31.3526,"lng":118.4295,"population":1598165,"timezone":""},{"id":1813325,"name":"Dazhou","asciiName":"Dazhou","countryCode":"CN","country":{"en":"China","vi":"Trung Quốc"},"admin1":"","lat":31.2106,"lng":107.4631,"population":1589435,"timezone":""},{"id":1787227,"name":"Yangzhou","asciiName":"Yangzhou","countryCode":"CN","country":{"en":"China","vi":"Trung Quốc"},"admin1":"","lat":32.3972,"lng":119.4358,"population":1584237,"timezone":""},{"id":1821306,"name":"Phnom Penh","asciiName":"Phnom Penh","countryCode":"KH","country":{"en":"Cambodia","vi":"Campuchia"},"admin1":"","lat":11.5625,"lng":104.916,"population":1573544,"timezone":""},{"id":1809498,"name":"Guilin","asciiName":"Guilin","countryCode":"CN","country":{"en":"China","vi":"Trung Quốc"},"admin1":"","lat":25.2802,"lng":110.2964,"population":1572300,"timezone":""},{"id":1167528,"name":"Quetta","asciiName":"Quetta","countryCode":"PK","country":{"en":"Pakistan","vi":"Pakistan"},"admin1":"","lat":30.1841,"lng":67.0014,"population":1565546,"timezone":""},{"id":1784853,"name":"Zhaoqing","asciiName":"Zhaoqing","countryCode":"CN","country":{"en":"China","vi":"Trung Quốc"},"admin1":"","lat":23.0489,"lng":112.4609,"population":1553109,"timezone":""},{"id":1800627,"name":"Mianyang","asciiName":"Mianyang","countryCode":"CN","country":{"en":"China","vi":"Trung Quốc"},"admin1":"","lat":31.4678,"lng":104.6817,"population":1550000,"timezone":""},{"id":12358576,"name":"Wanzhou","asciiName":"Wanzhou","countryCode":"CN","country":{"en":"China","vi":"Trung Quốc"},"admin1":"","lat":30.7645,"lng":108.3959,"population":1545900,"timezone":""},{"id":1798449,"name":"Putian","asciiName":"Putian","countryCode":"CN","country":{"en":"China","vi":"Trung Quốc"},"admin1":"","lat":25.4394,"lng":119.0103,"population":1539389,"timezone":""},{"id":1859642,"name":"Kawasaki","asciiName":"Kawasaki","countryCode":"JP","country":{"en":"Japan","vi":"Nhật Bản"},"admin1":"","lat":35.5206,"lng":139.7172,"population":1538262,"timezone":""},{"id":1783934,"name":"Shangqiu","asciiName":"Shangqiu","countryCode":"CN","country":{"en":"China","vi":"Trung Quốc"},"admin1":"","lat":34.45,"lng":115.65,"population":1536392,"timezone":""},{"id":2193733,"name":"Auckland","asciiName":"Auckland","countryCode":"NZ","country":{"en":"New Zealand","vi":"New Zealand"},"admin1":"","lat":-36.8485,"lng":174.7635,"population":1530500,"timezone":""},{"id":1859171,"name":"Kobe","asciiName":"Kobe","countryCode":"JP","country":{"en":"Japan","vi":"Nhật Bản"},"admin1":"","lat":34.6913,"lng":135.183,"population":1525152,"timezone":""},{"id":1586203,"name":"Cần Thơ","asciiName":"Can Tho","countryCode":"VN","country":{"en":"Vietnam","vi":"Việt Nam"},"admin1":"","lat":10.0371,"lng":105.7883,"population":1507187,"timezone":""},{"id":1336135,"name":"Khulna","asciiName":"Khulna","countryCode":"BD","country":{"en":"Bangladesh","vi":"Bangladesh"},"admin1":"","lat":22.8098,"lng":89.5644,"population":1500689,"timezone":""},{"id":1786657,"name":"Yinchuan","asciiName":"Yinchuan","countryCode":"CN","country":{"en":"China","vi":"Trung Quốc"},"admin1":"","lat":38.4681,"lng":106.2731,"population":1487579,"timezone":""},{"id":1261731,"name":"Nashik","asciiName":"Nashik","countryCode":"IN","country":{"en":"India","vi":"Ấn Độ"},"admin1":"","lat":19.9973,"lng":73.791,"population":1486053,"timezone":""},{"id":8400694,"name":"Taizhou","asciiName":"Taizhou","countryCode":"CN","country":{"en":"China","vi":"Trung Quốc"},"admin1":"","lat":28.6627,"lng":121.4331,"population":1485502,"timezone":""},{"id":1814870,"name":"Yiwu","asciiName":"Yiwu","countryCode":"CN","country":{"en":"China","vi":"Trung Quốc"},"admin1":"","lat":29.3151,"lng":120.0768,"population":1481384,"timezone":""},{"id":1835235,"name":"Daejeon","asciiName":"Daejeon","countryCode":"KR","country":{"en":"South Korea","vi":"Hàn Quốc"},"admin1":"","lat":36.3491,"lng":127.3849,"population":1470336,"timezone":""},{"id":2078025,"name":"Adelaide","asciiName":"Adelaide","countryCode":"AU","country":{"en":"Australia","vi":"Úc"},"admin1":"","lat":-34.9287,"lng":138.5986,"population":1469163,"timezone":""},{"id":1797353,"name":"Quanzhou","asciiName":"Quanzhou","countryCode":"CN","country":{"en":"China","vi":"Trung Quốc"},"admin1":"","lat":24.9139,"lng":118.5858,"population":1469157,"timezone":""},{"id":1264521,"name":"Madurai","asciiName":"Madurai","countryCode":"IN","country":{"en":"India","vi":"Ấn Độ"},"admin1":"","lat":9.919,"lng":78.1195,"population":1465625,"timezone":""},{"id":1805528,"name":"Jinhua","asciiName":"Jinhua","countryCode":"CN","country":{"en":"China","vi":"Trung Quốc"},"admin1":"","lat":29.1068,"lng":119.6442,"population":1463990,"timezone":""},{"id":1857910,"name":"Kyoto","asciiName":"Kyoto","countryCode":"JP","country":{"en":"Japan","vi":"Nhật Bản"},"admin1":"","lat":35.0211,"lng":135.7539,"population":1463723,"timezone":""},{"id":1806602,"name":"Cixi","asciiName":"Cixi","countryCode":"CN","country":{"en":"China","vi":"Trung Quốc"},"admin1":"","lat":30.1764,"lng":121.2457,"population":1457510,"timezone":""},{"id":1791121,"name":"Changde","asciiName":"Changde","countryCode":"CN","country":{"en":"China","vi":"Trung Quốc"},"admin1":"","lat":29.0321,"lng":111.6984,"population":1457419,"timezone":""},{"id":1735161,"name":"Kuala Lumpur","asciiName":"Kuala Lumpur","countryCode":"MY","country":{"en":"Malaysia","vi":"Malaysia"},"admin1":"","lat":3.1412,"lng":101.6865,"population":1453975,"timezone":""},{"id":1804879,"name":"Kaifeng","asciiName":"Kaifeng","countryCode":"CN","country":{"en":"China","vi":"Trung Quốc"},"admin1":"","lat":34.7986,"lng":114.3074,"population":1451741,"timezone":""},{"id":2038632,"name":"Anshan","asciiName":"Anshan","countryCode":"CN","country":{"en":"China","vi":"Trung Quốc"},"admin1":"","lat":41.1236,"lng":122.99,"population":1450000,"timezone":""},{"id":1283240,"name":"Kathmandu","asciiName":"Kathmandu","countryCode":"NP","country":{"en":"Nepal","vi":"Nepal"},"admin1":"","lat":27.7017,"lng":85.3206,"population":1442271,"timezone":""},{"id":10942359,"name":"Baoji","asciiName":"Baoji","countryCode":"CN","country":{"en":"China","vi":"Trung Quốc"},"admin1":"","lat":34.3678,"lng":107.2371,"population":1437802,"timezone":""},{"id":1793771,"name":"Suqian","asciiName":"Suqian","countryCode":"CN","country":{"en":"China","vi":"Trung Quốc"},"admin1":"","lat":33.9492,"lng":118.2958,"population":1437685,"timezone":""},{"id":1803300,"name":"Liuzhou","asciiName":"Liuzhou","countryCode":"CN","country":{"en":"China","vi":"Trung Quốc"},"admin1":"","lat":24.3241,"lng":109.407,"population":1436599,"timezone":""},{"id":1254361,"name":"Tirunelveli","asciiName":"Tirunelveli","countryCode":"IN","country":{"en":"India","vi":"Ấn Độ"},"admin1":"","lat":8.7274,"lng":77.6838,"population":1435844,"timezone":""},{"id":1787331,"name":"Zhangjiagang","asciiName":"Zhangjiagang","countryCode":"CN","country":{"en":"China","vi":"Trung Quốc"},"admin1":"","lat":31.865,"lng":120.5389,"population":1432044,"timezone":""},{"id":1279259,"name":"Agra","asciiName":"Agra","countryCode":"IN","country":{"en":"India","vi":"Ấn Độ"},"admin1":"","lat":27.1833,"lng":78.0167,"population":1430055,"timezone":""},{"id":1622786,"name":"Makassar","asciiName":"Makassar","countryCode":"ID","country":{"en":"Indonesia","vi":"Indonesia"},"admin1":"","lat":-5.1486,"lng":119.4319,"population":1423877,"timezone":""},{"id":1797658,"name":"Jinjiang","asciiName":"Jinjiang","countryCode":"CN","country":{"en":"China","vi":"Trung Quốc"},"admin1":"","lat":24.8198,"lng":118.5742,"population":1416151,"timezone":""},{"id":1271951,"name":"Faridabad","asciiName":"Faridabad","countryCode":"IN","country":{"en":"India","vi":"Ấn Độ"},"admin1":"","lat":28.4112,"lng":77.3132,"population":1414050,"timezone":""},{"id":1816234,"name":"Bozhou","asciiName":"Bozhou","countryCode":"CN","country":{"en":"China","vi":"Trung Quốc"},"admin1":"","lat":33.8772,"lng":115.7703,"population":1409436,"timezone":""},{"id":1797318,"name":"Qujing","asciiName":"Qujing","countryCode":"CN","country":{"en":"China","vi":"Trung Quốc"},"admin1":"","lat":25.4833,"lng":103.7833,"population":1408500,"timezone":""},{"id":8581443,"name":"South Tangerang","asciiName":"South Tangerang","countryCode":"ID","country":{"en":"Indonesia","vi":"Indonesia"},"admin1":"","lat":-6.2886,"lng":106.7179,"population":1404785,"timezone":""},{"id":1784990,"name":"Zhanjiang","asciiName":"Zhanjiang","countryCode":"CN","country":{"en":"China","vi":"Trung Quốc"},"admin1":"","lat":21.2339,"lng":110.3875,"population":1400709,"timezone":""},{"id":2037355,"name":"Fushun","asciiName":"Fushun","countryCode":"CN","country":{"en":"China","vi":"Trung Quốc"},"admin1":"","lat":41.8867,"lng":123.9436,"population":1400646,"timezone":""},{"id":1841811,"name":"Gwangju","asciiName":"Gwangju","countryCode":"KR","country":{"en":"South Korea","vi":"Hàn Quốc"},"admin1":"","lat":35.1547,"lng":126.9156,"population":1398538,"timezone":""},{"id":1258847,"name":"Rājkot","asciiName":"Rajkot","countryCode":"IN","country":{"en":"India","vi":"Ấn Độ"},"admin1":"","lat":22.2916,"lng":70.7932,"population":1390640,"timezone":""},{"id":1801792,"name":"Luoyang","asciiName":"Luoyang","countryCode":"CN","country":{"en":"China","vi":"Trung Quốc"},"admin1":"","lat":34.6735,"lng":112.4368,"population":1390581,"timezone":""},{"id":1802875,"name":"Guankou","asciiName":"Guankou","countryCode":"CN","country":{"en":"China","vi":"Trung Quốc"},"admin1":"","lat":28.1586,"lng":113.6271,"population":1380000,"timezone":""},{"id":1580240,"name":"Huế","asciiName":"Hue","countryCode":"VN","country":{"en":"Vietnam","vi":"Việt Nam"},"admin1":"","lat":16.4619,"lng":107.5955,"population":1380000,"timezone":""},{"id":1262111,"name":"Najafgarh","asciiName":"Najafgarh","countryCode":"IN","country":{"en":"India","vi":"Ấn Độ"},"admin1":"","lat":28.6092,"lng":76.9798,"population":1365000,"timezone":""},{"id":1808963,"name":"Handan","asciiName":"Handan","countryCode":"CN","country":{"en":"China","vi":"Trung Quốc"},"admin1":"","lat":36.61,"lng":114.4876,"population":1358318,"timezone":""},{"id":1183460,"name":"Bannu","asciiName":"Bannu","countryCode":"PK","country":{"en":"Pakistan","vi":"Pakistan"},"admin1":"","lat":32.9853,"lng":70.604,"population":1357890,"timezone":""},{"id":1786764,"name":"Yichang","asciiName":"Yichang","countryCode":"CN","country":{"en":"China","vi":"Trung Quốc"},"admin1":"","lat":30.7144,"lng":111.2847,"population":1350150,"timezone":""},{"id":1808198,"name":"Heze","asciiName":"Heze","countryCode":"CN","country":{"en":"China","vi":"Trung Quốc"},"admin1":"","lat":35.2393,"lng":115.4736,"population":1346717,"timezone":""},{"id":1269300,"name":"Jamshedpur","asciiName":"Jamshedpur","countryCode":"IN","country":{"en":"India","vi":"Ấn Độ"},"admin1":"","lat":22.8028,"lng":86.1855,"population":1339438,"timezone":""},{"id":6940394,"name":"Saitama","asciiName":"Saitama","countryCode":"JP","country":{"en":"Japan","vi":"Nhật Bản"},"admin1":"","lat":35.9081,"lng":139.6566,"population":1324854,"timezone":""},{"id":1270926,"name":"Gorakhpur","asciiName":"Gorakhpur","countryCode":"IN","country":{"en":"India","vi":"Ấn Độ"},"admin1":"","lat":29.4477,"lng":75.6721,"population":1324570,"timezone":""},{"id":8533133,"name":"Liupanshui","asciiName":"Liupanshui","countryCode":"CN","country":{"en":"China","vi":"Trung Quốc"},"admin1":"","lat":26.5944,"lng":104.8333,"population":1320825,"timezone":""},{"id":1684308,"name":"Taguig","asciiName":"Taguig","countryCode":"PH","country":{"en":"Philippines","vi":"Philippines"},"admin1":"","lat":14.5243,"lng":121.0792,"population":1308085,"timezone":""},{"id":1801180,"name":"Maoming","asciiName":"Maoming","countryCode":"CN","country":{"en":"China","vi":"Trung Quốc"},"admin1":"","lat":21.6663,"lng":110.9136,"population":1307802,"timezone":""},{"id":1797551,"name":"Qinzhou","asciiName":"Qinzhou","countryCode":"CN","country":{"en":"China","vi":"Trung Quốc"},"admin1":"","lat":21.9825,"lng":108.6506,"population":1296300,"timezone":""},{"id":1801934,"name":"Luohe","asciiName":"Luohe","countryCode":"CN","country":{"en":"China","vi":"Trung Quốc"},"admin1":"","lat":33.5639,"lng":114.0427,"population":1294974,"timezone":""},{"id":1790587,"name":"Xiangyang","asciiName":"Xiangyang","countryCode":"CN","country":{"en":"China","vi":"Trung Quốc"},"admin1":"","lat":32.0422,"lng":112.1448,"population":1294733,"timezone":""},{"id":1806408,"name":"Yangjiang","asciiName":"Yangjiang","countryCode":"CN","country":{"en":"China","vi":"Trung Quốc"},"admin1":"","lat":21.8556,"lng":111.9627,"population":1292987,"timezone":""},{"id":1786760,"name":"Yixing","asciiName":"Yixing","countryCode":"CN","country":{"en":"China","vi":"Trung Quốc"},"admin1":"","lat":31.3606,"lng":119.8202,"population":1285785,"timezone":""},{"id":1259652,"name":"Pimpri","asciiName":"Pimpri","countryCode":"IN","country":{"en":"India","vi":"Ấn Độ"},"admin1":"","lat":18.6229,"lng":73.807,"population":1284606,"timezone":""},{"id":1583992,"name":"Da Nang","asciiName":"Da Nang","countryCode":"VN","country":{"en":"Vietnam","vi":"Việt Nam"},"admin1":"","lat":16.0678,"lng":108.2208,"population":1276000,"timezone":""},{"id":1723510,"name":"Budta","asciiName":"Budta","countryCode":"PH","country":{"en":"Philippines","vi":"Philippines"},"admin1":"","lat":7.2042,"lng":124.4397,"population":1273715,"timezone":""},{"id":1587923,"name":"Biên Hòa","asciiName":"Bien Hoa","countryCode":"VN","country":{"en":"Vietnam","vi":"Việt Nam"},"admin1":"","lat":10.9447,"lng":106.8243,"population":1272235,"timezone":""},{"id":1788046,"name":"Xuchang","asciiName":"Xuchang","countryCode":"CN","country":{"en":"China","vi":"Trung Quốc"},"admin1":"","lat":34.0319,"lng":113.863,"population":1265536,"timezone":""},{"id":1268295,"name":"Kalyān","asciiName":"Kalyan","countryCode":"IN","country":{"en":"India","vi":"Ấn Độ"},"admin1":"","lat":19.2437,"lng":73.1355,"population":1262255,"timezone":""},{"id":1783745,"name":"Zigong","asciiName":"Zigong","countryCode":"CN","country":{"en":"China","vi":"Trung Quốc"},"admin1":"","lat":29.3416,"lng":104.7769,"population":1262064,"timezone":""},{"id":1642548,"name":"Jepara","asciiName":"Jepara","countryCode":"ID","country":{"en":"Indonesia","vi":"Indonesia"},"admin1":"","lat":-6.5924,"lng":110.671,"population":1257912,"timezone":""},{"id":10630003,"name":"Xuzhou","asciiName":"Xuzhou","countryCode":"CN","country":{"en":"China","vi":"Trung Quốc"},"admin1":"","lat":34.2044,"lng":117.2839,"population":1253991,"timezone":""},{"id":1799491,"name":"Neijiang","asciiName":"Neijiang","countryCode":"CN","country":{"en":"China","vi":"Trung Quốc"},"admin1":"","lat":29.5835,"lng":105.0622,"population":1251095,"timezone":""},{"id":1808316,"name":"Heshan","asciiName":"Heshan","countryCode":"CN","country":{"en":"China","vi":"Trung Quốc"},"admin1":"","lat":28.5694,"lng":112.3473,"population":1249807,"timezone":""},{"id":1272423,"name":"Dombivali","asciiName":"Dombivali","countryCode":"IN","country":{"en":"India","vi":"Ấn Độ"},"admin1":"","lat":19.2167,"lng":73.0833,"population":1247327,"timezone":""},{"id":1805518,"name":"Jining","asciiName":"Jining","countryCode":"CN","country":{"en":"China","vi":"Trung Quốc"},"admin1":"","lat":35.405,"lng":116.5814,"population":1241012,"timezone":""},{"id":1788534,"name":"Xinyang","asciiName":"Xinyang","countryCode":"CN","country":{"en":"China","vi":"Trung Quốc"},"admin1":"","lat":32.1228,"lng":114.0656,"population":1230042,"timezone":""},{"id":1803834,"name":"Liaocheng","asciiName":"Liaocheng","countryCode":"CN","country":{"en":"China","vi":"Trung Quốc"},"admin1":"","lat":36.4506,"lng":116.0025,"population":1229768,"timezone":""},{"id":10942283,"name":"Jinzhong","asciiName":"Jinzhong","countryCode":"CN","country":{"en":"China","vi":"Trung Quốc"},"admin1":"","lat":37.684,"lng":112.7547,"population":1226617,"timezone":""},{"id":1263214,"name":"Meerut","asciiName":"Meerut","countryCode":"IN","country":{"en":"India","vi":"Ấn Độ"},"admin1":"","lat":28.98,"lng":77.7064,"population":1223184,"timezone":""},{"id":1253133,"name":"Virār","asciiName":"Virar","countryCode":"IN","country":{"en":"India","vi":"Ấn Độ"},"admin1":"","lat":19.4559,"lng":72.8114,"population":1222390,"timezone":""},{"id":1261162,"name":"Nowrangapur","asciiName":"Nowrangapur","countryCode":"IN","country":{"en":"India","vi":"Ấn Độ"},"admin1":"","lat":19.2311,"lng":82.5483,"population":1220946,"timezone":""},{"id":1808956,"name":"Changzhi","asciiName":"Changzhi","countryCode":"CN","country":{"en":"China","vi":"Trung Quốc"},"admin1":"","lat":36.1839,"lng":113.1053,"population":1214940,"timezone":""},{"id":1792892,"name":"Tianshui","asciiName":"Tianshui","countryCode":"CN","country":{"en":"China","vi":"Trung Quốc"},"admin1":"","lat":34.5795,"lng":105.7424,"population":1212791,"timezone":""},{"id":1311874,"name":"Mandalay","asciiName":"Mandalay","countryCode":"MM","country":{"en":"Myanmar","vi":"Myanmar"},"admin1":"","lat":21.9747,"lng":96.0836,"population":1208099,"timezone":""},{"id":1255634,"name":"Srinagar","asciiName":"Srinagar","countryCode":"IN","country":{"en":"India","vi":"Ấn Độ"},"admin1":"","lat":34.0857,"lng":74.8056,"population":1206419,"timezone":""},{"id":1862415,"name":"Hiroshima","asciiName":"Hiroshima","countryCode":"JP","country":{"en":"Japan","vi":"Nhật Bản"},"admin1":"","lat":34.4,"lng":132.45,"population":1200754,"timezone":""},{"id":1791636,"name":"Weinan","asciiName":"Weinan","countryCode":"CN","country":{"en":"China","vi":"Trung Quốc"},"admin1":"","lat":34.5035,"lng":109.5089,"population":1199290,"timezone":""},{"id":1271308,"name":"Ghāziābād","asciiName":"Ghaziabad","countryCode":"IN","country":{"en":"India","vi":"Ấn Độ"},"admin1":"","lat":28.6654,"lng":77.4392,"population":1199191,"timezone":""},{"id":1272979,"name":"Dhanbad","asciiName":"Dhanbad","countryCode":"IN","country":{"en":"India","vi":"Ấn Độ"},"admin1":"","lat":23.7976,"lng":86.4299,"population":1196214,"timezone":""},{"id":12747064,"name":"Hong Kong Island","asciiName":"Hong Kong Island","countryCode":"HK","country":{"en":"Hong Kong","vi":"Hồng Kông"},"admin1":"","lat":22.263,"lng":114.1842,"population":1195529,"timezone":""},{"id":1835553,"name":"Suwon","asciiName":"Suwon","countryCode":"KR","country":{"en":"South Korea","vi":"Hàn Quốc"},"admin1":"","lat":37.2911,"lng":127.0089,"population":1191063,"timezone":""},{"id":1805953,"name":"Jiaxing","asciiName":"Jiaxing","countryCode":"CN","country":{"en":"China","vi":"Trung Quốc"},"admin1":"","lat":30.7522,"lng":120.75,"population":1180000,"timezone":""},{"id":1278149,"name":"Aurangabad","asciiName":"Aurangabad","countryCode":"IN","country":{"en":"India","vi":"Ấn Độ"},"admin1":"","lat":19.8776,"lng":75.3423,"population":1175116,"timezone":""},{"id":1624917,"name":"Bandar Lampung","asciiName":"Bandar Lampung","countryCode":"ID","country":{"en":"Indonesia","vi":"Indonesia"},"admin1":"","lat":-5.4292,"lng":105.2611,"population":1166066,"timezone":""},{"id":1253405,"name":"Varanasi","asciiName":"Varanasi","countryCode":"IN","country":{"en":"India","vi":"Ấn Độ"},"admin1":"","lat":25.3167,"lng":83.0104,"population":1164404,"timezone":""},{"id":6295587,"name":"Batam","asciiName":"Batam","countryCode":"ID","country":{"en":"Indonesia","vi":"Indonesia"},"admin1":"","lat":1.1494,"lng":104.0249,"population":1164352,"timezone":""},{"id":1805179,"name":"Jiujiang","asciiName":"Jiujiang","countryCode":"CN","country":{"en":"China","vi":"Trung Quốc"},"admin1":"","lat":29.7048,"lng":116.0021,"population":1164268,"timezone":""},{"id":1278710,"name":"Amritsar","asciiName":"Amritsar","countryCode":"IN","country":{"en":"India","vi":"Ấn Độ"},"admin1":"","lat":31.6223,"lng":74.8753,"population":1159227,"timezone":""},{"id":1785294,"name":"Anyang","asciiName":"Anyang","countryCode":"CN","country":{"en":"China","vi":"Trung Quốc"},"admin1":"","lat":36.096,"lng":114.3828,"population":1146839,"timezone":""},{"id":13405906,"name":"Luohu District","asciiName":"Luohu District","countryCode":"CN","country":{"en":"China","vi":"Trung Quốc"},"admin1":"","lat":22.5472,"lng":114.1315,"population":1143801,"timezone":""},{"id":1253184,"name":"Vijayawada","asciiName":"Vijayawada","countryCode":"IN","country":{"en":"India","vi":"Ấn Độ"},"admin1":"","lat":16.5075,"lng":80.6466,"population":1143232,"timezone":""},{"id":1816373,"name":"Bijie","asciiName":"Bijie","countryCode":"CN","country":{"en":"China","vi":"Trung Quốc"},"admin1":"","lat":27.3019,"lng":105.2863,"population":1137383,"timezone":""},{"id":1783763,"name":"Zhuzhou","asciiName":"Zhuzhou","countryCode":"CN","country":{"en":"China","vi":"Trung Quốc"},"admin1":"","lat":27.8333,"lng":113.15,"population":1129687,"timezone":""},{"id":1648473,"name":"Bogor","asciiName":"Bogor","countryCode":"ID","country":{"en":"Indonesia","vi":"Indonesia"},"admin1":"","lat":-6.5944,"lng":106.7892,"population":1127408,"timezone":""},{"id":1978681,"name":"Malingao","asciiName":"Malingao","countryCode":"PH","country":{"en":"Philippines","vi":"Philippines"},"admin1":"","lat":7.1608,"lng":124.475,"population":1121974,"timezone":""},{"id":1258526,"name":"Ranchi","asciiName":"Ranchi","countryCode":"IN","country":{"en":"India","vi":"Ấn Độ"},"admin1":"","lat":23.3432,"lng":85.3094,"population":1120374,"timezone":""},{"id":1787858,"name":"Shangrao","asciiName":"Shangrao","countryCode":"CN","country":{"en":"China","vi":"Trung Quốc"},"admin1":"","lat":28.4518,"lng":117.9429,"population":1116486,"timezone":""},{"id":1807700,"name":"Huaibei","asciiName":"Huaibei","countryCode":"CN","country":{"en":"China","vi":"Trung Quốc"},"admin1":"","lat":33.9744,"lng":116.7917,"population":1113321,"timezone":""},{"id":1800818,"name":"Meishan","asciiName":"Meishan","countryCode":"CN","country":{"en":"China","vi":"Trung Quốc"},"admin1":"","lat":30.0439,"lng":103.837,"population":1107742,"timezone":""},{"id":2111149,"name":"Sendai","asciiName":"Sendai","countryCode":"JP","country":{"en":"Japan","vi":"Nhật Bản"},"admin1":"","lat":38.2667,"lng":140.8667,"population":1096704,"timezone":""},{"id":1833747,"name":"Ulsan","asciiName":"Ulsan","countryCode":"KR","country":{"en":"South Korea","vi":"Hàn Quốc"},"admin1":"","lat":35.5372,"lng":129.3167,"population":1095014,"timezone":""},{"id":1810820,"name":"Fuzhou","asciiName":"Fuzhou","countryCode":"CN","country":{"en":"China","vi":"Trung Quốc"},"admin1":"","lat":27.96,"lng":116.3333,"population":1089888,"timezone":""},{"id":1809532,"name":"Guigang","asciiName":"Guigang","countryCode":"CN","country":{"en":"China","vi":"Trung Quốc"},"admin1":"","lat":23.116,"lng":109.5947,"population":1086327,"timezone":""},{"id":1631761,"name":"Pekanbaru","asciiName":"Pekanbaru","countryCode":"ID","country":{"en":"Indonesia","vi":"Indonesia"},"admin1":"","lat":0.5167,"lng":101.4417,"population":1085000,"timezone":""},{"id":1269633,"name":"Jabalpur","asciiName":"Jabalpur","countryCode":"IN","country":{"en":"India","vi":"Ấn Độ"},"admin1":"","lat":23.167,"lng":79.9501,"population":1081677,"timezone":""},{"id":1808370,"name":"Hengyang","asciiName":"Hengyang","countryCode":"CN","country":{"en":"China","vi":"Trung Quốc"},"admin1":"","lat":26.8895,"lng":112.6189,"population":1075516,"timezone":""},{"id":1278994,"name":"Prayagraj","asciiName":"Prayagraj","countryCode":"IN","country":{"en":"India","vi":"Ấn Độ"},"admin1":"","lat":25.4448,"lng":81.8432,"population":1073438,"timezone":""},{"id":1253102,"name":"Visakhapatnam","asciiName":"Visakhapatnam","countryCode":"IN","country":{"en":"India","vi":"Ấn Độ"},"admin1":"","lat":17.6801,"lng":83.2016,"population":1063178,"timezone":""},{"id":1842485,"name":"Goyang-si","asciiName":"Goyang-si","countryCode":"KR","country":{"en":"South Korea","vi":"Hàn Quốc"},"admin1":"","lat":37.6564,"lng":126.835,"population":1061752,"timezone":""},{"id":1785781,"name":"Yulin","asciiName":"Yulin","countryCode":"CN","country":{"en":"China","vi":"Trung Quốc"},"admin1":"","lat":22.6305,"lng":110.1469,"population":1056743,"timezone":""},{"id":1268865,"name":"Jodhpur","asciiName":"Jodhpur","countryCode":"IN","country":{"en":"India","vi":"Ấn Độ"},"admin1":"","lat":26.2684,"lng":73.0059,"population":1056191,"timezone":""},{"id":1270583,"name":"Gwalior","asciiName":"Gwalior","countryCode":"IN","country":{"en":"India","vi":"Ấn Độ"},"admin1":"","lat":26.2298,"lng":78.1734,"population":1054420,"timezone":""},{"id":1805540,"name":"Jingzhou","asciiName":"Jingzhou","countryCode":"CN","country":{"en":"China","vi":"Trung Quốc"},"admin1":"","lat":30.3503,"lng":112.1903,"population":1052282,"timezone":""},{"id":1788572,"name":"Xinxiang","asciiName":"Xinxiang","countryCode":"CN","country":{"en":"China","vi":"Trung Quốc"},"admin1":"","lat":35.1903,"lng":113.8015,"population":1047088,"timezone":""},{"id":1786746,"name":"Yichun","asciiName":"Yichun","countryCode":"CN","country":{"en":"China","vi":"Trung Quốc"},"admin1":"","lat":27.8333,"lng":114.4,"population":1045952,"timezone":""},{"id":1254745,"name":"Teni","asciiName":"Teni","countryCode":"IN","country":{"en":"India","vi":"Ấn Độ"},"admin1":"","lat":10.0112,"lng":77.4777,"population":1034724,"timezone":""},{"id":1790353,"name":"Xianyang","asciiName":"Xianyang","countryCode":"CN","country":{"en":"China","vi":"Trung Quốc"},"admin1":"","lat":34.3378,"lng":108.7026,"population":1034081,"timezone":""},{"id":1796556,"name":"Sanya","asciiName":"Sanya","countryCode":"CN","country":{"en":"China","vi":"Trung Quốc"},"admin1":"","lat":18.2544,"lng":109.5095,"population":1031396,"timezone":""},{"id":1185188,"name":"Rangpur","asciiName":"Rangpur","countryCode":"BD","country":{"en":"Bangladesh","vi":"Bangladesh"},"admin1":"","lat":25.7466,"lng":89.2517,"population":1031388,"timezone":""},{"id":1185186,"name":"Comilla","asciiName":"Comilla","countryCode":"BD","country":{"en":"Bangladesh","vi":"Bangladesh"},"admin1":"","lat":23.4619,"lng":91.185,"population":1030000,"timezone":""},{"id":1795874,"name":"Shaoguan","asciiName":"Shaoguan","countryCode":"CN","country":{"en":"China","vi":"Trung Quốc"},"admin1":"","lat":24.8,"lng":113.5833,"population":1028460,"timezone":""},{"id":1270396,"name":"Howrah","asciiName":"Howrah","countryCode":"IN","country":{"en":"India","vi":"Ấn Độ"},"admin1":"","lat":22.5769,"lng":88.3186,"population":1027672,"timezone":""},{"id":1258980,"name":"Raipur","asciiName":"Raipur","countryCode":"IN","country":{"en":"India","vi":"Ấn Độ"},"admin1":"","lat":21.2333,"lng":81.6333,"population":1027264,"timezone":""},{"id":1846326,"name":"Changwon","asciiName":"Changwon","countryCode":"KR","country":{"en":"South Korea","vi":"Hàn Quốc"},"admin1":"","lat":35.2281,"lng":128.6811,"population":1025702,"timezone":""},{"id":1802276,"name":"Longyan","asciiName":"Longyan","countryCode":"CN","country":{"en":"China","vi":"Trung Quốc"},"admin1":"","lat":25.0749,"lng":117.0178,"population":1025087,"timezone":""},{"id":1254388,"name":"Tiruchirappalli","asciiName":"Tiruchirappalli","countryCode":"IN","country":{"en":"India","vi":"Ấn Độ"},"admin1":"","lat":10.8155,"lng":78.6965,"population":1022518,"timezone":""},{"id":1786217,"name":"Yongzhou","asciiName":"Yongzhou","countryCode":"CN","country":{"en":"China","vi":"Trung Quốc"},"admin1":"","lat":26.4239,"lng":111.6131,"population":1020715,"timezone":""},{"id":1679432,"name":"Zamboanga","asciiName":"Zamboanga","countryCode":"PH","country":{"en":"Philippines","vi":"Philippines"},"admin1":"","lat":6.9103,"lng":122.0739,"population":1018849,"timezone":""},{"id":1806535,"name":"Huzhou","asciiName":"Huzhou","countryCode":"CN","country":{"en":"China","vi":"Trung Quốc"},"admin1":"","lat":30.8703,"lng":120.0933,"population":1015937,"timezone":""},{"id":1803936,"name":"Wuwei","asciiName":"Wuwei","countryCode":"CN","country":{"en":"China","vi":"Trung Quốc"},"admin1":"","lat":37.9267,"lng":102.632,"population":1010295,"timezone":""},{"id":1808857,"name":"Hanzhong","asciiName":"Hanzhong","countryCode":"CN","country":{"en":"China","vi":"Trung Quốc"},"admin1":"","lat":33.0751,"lng":107.0221,"population":1006557,"timezone":""},{"id":7576887,"name":"Hezhou","asciiName":"Hezhou","countryCode":"CN","country":{"en":"China","vi":"Trung Quốc"},"admin1":"","lat":24.4036,"lng":111.5668,"population":1005490,"timezone":""},{"id":1266049,"name":"Kota","asciiName":"Kota","countryCode":"IN","country":{"en":"India","vi":"Ấn Độ"},"admin1":"","lat":25.1825,"lng":75.8391,"population":1001694,"timezone":""},{"id":7602670,"name":"Zhu Cheng City","asciiName":"Zhu Cheng City","countryCode":"CN","country":{"en":"China","vi":"Trung Quốc"},"admin1":"","lat":35.995,"lng":119.4026,"population":1000000,"timezone":""},{"id":6943660,"name":"Shivaji Nagar","asciiName":"Shivaji Nagar","countryCode":"IN","country":{"en":"India","vi":"Ấn Độ"},"admin1":"","lat":18.5302,"lng":73.8526,"population":1000000,"timezone":""},{"id":1812101,"name":"Dongying","asciiName":"Dongying","countryCode":"CN","country":{"en":"China","vi":"Trung Quốc"},"admin1":"","lat":37.4627,"lng":118.4917,"population":998968,"timezone":""},{"id":1801640,"name":"Luzhou","asciiName":"Luzhou","countryCode":"CN","country":{"en":"China","vi":"Trung Quốc"},"admin1":"","lat":28.8903,"lng":105.4258,"population":998900,"timezone":""},{"id":1256436,"name":"Sholapur","asciiName":"Sholapur","countryCode":"IN","country":{"en":"India","vi":"Ấn Độ"},"admin1":"","lat":17.6715,"lng":75.9104,"population":997281,"timezone":""},{"id":1800779,"name":"Meizhou","asciiName":"Meizhou","countryCode":"CN","country":{"en":"China","vi":"Trung Quốc"},"admin1":"","lat":24.2886,"lng":116.1177,"population":992351,"timezone":""},{"id":1927639,"name":"Yueyang","asciiName":"Yueyang","countryCode":"CN","country":{"en":"China","vi":"Trung Quốc"},"admin1":"","lat":29.3746,"lng":113.0948,"population":991465,"timezone":""},{"id":1804591,"name":"Laiwu","asciiName":"Laiwu","countryCode":"CN","country":{"en":"China","vi":"Trung Quốc"},"admin1":"","lat":36.1928,"lng":117.6569,"population":989535,"timezone":""},{"id":2038300,"name":"Benxi","asciiName":"Benxi","countryCode":"CN","country":{"en":"China","vi":"Trung Quốc"},"admin1":"","lat":41.2886,"lng":123.765,"population":987717,"timezone":""},{"id":2113015,"name":"Chiba","asciiName":"Chiba","countryCode":"JP","country":{"en":"Japan","vi":"Nhật Bản"},"admin1":"","lat":35.6,"lng":140.1167,"population":979768,"timezone":""},{"id":1798827,"name":"Pingdingshan","asciiName":"Pingdingshan","countryCode":"CN","country":{"en":"China","vi":"Trung Quốc"},"admin1":"","lat":33.7309,"lng":113.3155,"population":979130,"timezone":""},{"id":1166000,"name":"Sargodha","asciiName":"Sargodha","countryCode":"PK","country":{"en":"Pakistan","vi":"Pakistan"},"admin1":"","lat":32.0859,"lng":72.6742,"population":975886,"timezone":""},{"id":1816440,"name":"Bengbu","asciiName":"Bengbu","countryCode":"CN","country":{"en":"China","vi":"Trung Quốc"},"admin1":"","lat":32.9408,"lng":117.3608,"population":972784,"timezone":""},{"id":1274746,"name":"Chandigarh","asciiName":"Chandigarh","countryCode":"IN","country":{"en":"India","vi":"Ấn Độ"},"admin1":"","lat":30.7363,"lng":76.7884,"population":970602,"timezone":""},{"id":1717512,"name":"Cebu City","asciiName":"Cebu City","countryCode":"PH","country":{"en":"Philippines","vi":"Philippines"},"admin1":"","lat":10.3167,"lng":123.8907,"population":965332,"timezone":""},{"id":1796823,"name":"Sanhe","asciiName":"Sanhe","countryCode":"CN","country":{"en":"China","vi":"Trung Quốc"},"admin1":"","lat":39.9805,"lng":117.0689,"population":965075,"timezone":""},{"id":1254348,"name":"Tiruppur","asciiName":"Tiruppur","countryCode":"IN","country":{"en":"India","vi":"Ấn Độ"},"admin1":"","lat":11.1154,"lng":77.3546,"population":963173,"timezone":""},{"id":1271476,"name":"Guwahati","asciiName":"Guwahati","countryCode":"IN","country":{"en":"India","vi":"Ấn Độ"},"admin1":"","lat":26.1844,"lng":91.7458,"population":962334,"timezone":""},{"id":1790492,"name":"Xiangtan","asciiName":"Xiangtan","countryCode":"CN","country":{"en":"China","vi":"Trung Quốc"},"admin1":"","lat":27.85,"lng":112.9,"population":959303,"timezone":""},{"id":1803567,"name":"Linfen","asciiName":"Linfen","countryCode":"CN","country":{"en":"China","vi":"Trung Quốc"},"admin1":"","lat":36.0889,"lng":111.5189,"population":959198,"timezone":""},{"id":1931681,"name":"Victoria","asciiName":"Victoria","countryCode":"HK","country":{"en":"Hong Kong","vi":"Hồng Kông"},"admin1":"","lat":22.2875,"lng":114.1442,"population":956800,"timezone":""},{"id":1784642,"name":"Zhenjiang","asciiName":"Zhenjiang","countryCode":"CN","country":{"en":"China","vi":"Trung Quốc"},"admin1":"","lat":32.2109,"lng":119.4551,"population":950516,"timezone":""},{"id":2036662,"name":"Huludao","asciiName":"Huludao","countryCode":"CN","country":{"en":"China","vi":"Trung Quốc"},"admin1":"","lat":40.7524,"lng":120.8355,"population":944495,"timezone":""},{"id":1269920,"name":"Hubballi","asciiName":"Hubballi","countryCode":"IN","country":{"en":"India","vi":"Ấn Độ"},"admin1":"","lat":15.3478,"lng":75.1338,"population":943788,"timezone":""},{"id":1859307,"name":"Kitakyushu","asciiName":"Kitakyushu","countryCode":"JP","country":{"en":"Japan","vi":"Nhật Bản"},"admin1":"","lat":33.8518,"lng":130.8503,"population":940978,"timezone":""},{"id":11790342,"name":"Setagaya","asciiName":"Setagaya","countryCode":"JP","country":{"en":"Japan","vi":"Nhật Bản"},"admin1":"","lat":35.6419,"lng":139.6472,"population":940071,"timezone":""},{"id":1281673,"name":"Baoshan","asciiName":"Baoshan","countryCode":"CN","country":{"en":"China","vi":"Trung Quốc"},"admin1":"","lat":25.1163,"lng":99.1637,"population":935618,"timezone":""},{"id":1797063,"name":"Rui’an","asciiName":"Rui'an","countryCode":"CN","country":{"en":"China","vi":"Trung Quốc"},"admin1":"","lat":27.7761,"lng":120.6586,"population":927383,"timezone":""},{"id":6611854,"name":"Nay Pyi Taw","asciiName":"Nay Pyi Taw","countryCode":"MM","country":{"en":"Myanmar","vi":"Myanmar"},"admin1":"","lat":19.745,"lng":96.1297,"population":925000,"timezone":""},{"id":1262321,"name":"Mysuru","asciiName":"Mysuru","countryCode":"IN","country":{"en":"India","vi":"Ấn Độ"},"admin1":"","lat":12.2979,"lng":76.6393,"population":920550,"timezone":""},{"id":1257629,"name":"Salem","asciiName":"Salem","countryCode":"IN","country":{"en":"India","vi":"Ấn Độ"},"admin1":"","lat":11.6538,"lng":78.1554,"population":917414,"timezone":""},{"id":1897000,"name":"Seongnam-si","asciiName":"Seongnam-si","countryCode":"KR","country":{"en":"South Korea","vi":"Hàn Quốc"},"admin1":"","lat":37.4386,"lng":127.1378,"population":914832,"timezone":""},{"id":1730501,"name":"Antipolo","asciiName":"Antipolo","countryCode":"PH","country":{"en":"Philippines","vi":"Philippines"},"admin1":"","lat":14.6258,"lng":121.1225,"population":913712,"timezone":""},{"id":1164909,"name":"Sialkot","asciiName":"Sialkot","countryCode":"PK","country":{"en":"Pakistan","vi":"Pakistan"},"admin1":"","lat":32.4927,"lng":74.5313,"population":911817,"timezone":""},{"id":1804609,"name":"Laibin","asciiName":"Laibin","countryCode":"CN","country":{"en":"China","vi":"Trung Quốc"},"admin1":"","lat":23.7474,"lng":109.2222,"population":910282,"timezone":""},{"id":1633419,"name":"Padang","asciiName":"Padang","countryCode":"ID","country":{"en":"Indonesia","vi":"Indonesia"},"admin1":"","lat":-0.9492,"lng":100.3543,"population":909040,"timezone":""},{"id":1790254,"name":"Xiaogan","asciiName":"Xiaogan","countryCode":"CN","country":{"en":"China","vi":"Trung Quốc"},"admin1":"","lat":30.9269,"lng":113.9222,"population":908266,"timezone":""},{"id":1783683,"name":"Ziyang","asciiName":"Ziyang","countryCode":"CN","country":{"en":"China","vi":"Trung Quốc"},"admin1":"","lat":30.1211,"lng":104.6481,"population":905729,"timezone":""},{"id":1183880,"name":"Bahawalpur","asciiName":"Bahawalpur","countryCode":"PK","country":{"en":"Pakistan","vi":"Pakistan"},"admin1":"","lat":29.3978,"lng":71.6752,"population":903795,"timezone":""},{"id":1797264,"name":"Quzhou","asciiName":"Quzhou","countryCode":"CN","country":{"en":"China","vi":"Trung Quốc"},"admin1":"","lat":28.9594,"lng":118.8686,"population":902767,"timezone":""},{"id":1785453,"name":"Zaozhuang","asciiName":"Zaozhuang","countryCode":"CN","country":{"en":"China","vi":"Trung Quốc"},"admin1":"","lat":34.8647,"lng":117.5542,"population":899753,"timezone":""},{"id":1798654,"name":"Pingxiang","asciiName":"Pingxiang","countryCode":"CN","country":{"en":"China","vi":"Trung Quốc"},"admin1":"","lat":27.6167,"lng":113.8535,"population":893550,"timezone":""},{"id":1270642,"name":"Gurugram","asciiName":"Gurugram","countryCode":"IN","country":{"en":"India","vi":"Ấn Độ"},"admin1":"","lat":28.4601,"lng":77.0263,"population":886519,"timezone":""},{"id":1275817,"name":"Bhubaneswar","asciiName":"Bhubaneswar","countryCode":"IN","country":{"en":"India","vi":"Ấn Độ"},"admin1":"","lat":20.2724,"lng":85.8339,"population":885363,"timezone":""},{"id":1886762,"name":"Zhoushan","asciiName":"Zhoushan","countryCode":"CN","country":{"en":"China","vi":"Trung Quốc"},"admin1":"","lat":29.9887,"lng":122.2049,"population":882932,"timezone":""},{"id":2035265,"name":"Qiqihar","asciiName":"Qiqihar","countryCode":"CN","country":{"en":"China","vi":"Trung Quốc"},"admin1":"","lat":47.3392,"lng":123.9615,"population":882364,"timezone":""},{"id":1802940,"name":"Puning","asciiName":"Puning","countryCode":"CN","country":{"en":"China","vi":"Trung Quốc"},"admin1":"","lat":23.3107,"lng":116.1687,"population":874954,"timezone":""},{"id":1275901,"name":"Bhiwandi","asciiName":"Bhiwandi","countryCode":"IN","country":{"en":"India","vi":"Ấn Độ"},"admin1":"","lat":19.3002,"lng":73.0588,"population":874032,"timezone":""},{"id":1789065,"name":"Ankang","asciiName":"Ankang","countryCode":"CN","country":{"en":"China","vi":"Trung Quốc"},"admin1":"","lat":32.68,"lng":109.0172,"population":870126,"timezone":""},{"id":1268782,"name":"Jalandhar","asciiName":"Jalandhar","countryCode":"IN","country":{"en":"India","vi":"Ấn Độ"},"admin1":"","lat":31.3256,"lng":75.5792,"population":868929,"timezone":""},{"id":1804540,"name":"Langfang","asciiName":"Langfang","countryCode":"CN","country":{"en":"China","vi":"Trung Quốc"},"admin1":"","lat":39.5208,"lng":116.7147,"population":868066,"timezone":""},{"id":1805987,"name":"Jiaozuo","asciiName":"Jiaozuo","countryCode":"CN","country":{"en":"China","vi":"Trung Quốc"},"admin1":"","lat":35.2393,"lng":113.2391,"population":865413,"timezone":""},{"id":12069922,"name":"Rohini","asciiName":"Rohini","countryCode":"IN","country":{"en":"India","vi":"Ấn Độ"},"admin1":"","lat":28.7432,"lng":77.0678,"population":860000,"timezone":""},{"id":1791748,"name":"Wanxian","asciiName":"Wanxian","countryCode":"CN","country":{"en":"China","vi":"Trung Quốc"},"admin1":"","lat":30.816,"lng":108.3741,"population":859662,"timezone":""},{"id":1799194,"name":"Guang’an","asciiName":"Guang'an","countryCode":"CN","country":{"en":"China","vi":"Trung Quốc"},"admin1":"","lat":30.4741,"lng":106.637,"population":858159,"timezone":""},{"id":1732752,"name":"Johor Bahru","asciiName":"Johor Bahru","countryCode":"MY","country":{"en":"Malaysia","vi":"Malaysia"},"admin1":"","lat":1.4655,"lng":103.7578,"population":858118,"timezone":""},{"id":1845604,"name":"Cheongju-si","asciiName":"Cheongju-si","countryCode":"KR","country":{"en":"South Korea","vi":"Hàn Quốc"},"admin1":"","lat":36.6372,"lng":127.4897,"population":853938,"timezone":""},{"id":7290466,"name":"Pasig City","asciiName":"Pasig City","countryCode":"PH","country":{"en":"Philippines","vi":"Philippines"},"admin1":"","lat":14.5869,"lng":121.0614,"population":853050,"timezone":""},{"id":12501153,"name":"Kanayannur","asciiName":"Kanayannur","countryCode":"IN","country":{"en":"India","vi":"Ấn Độ"},"admin1":"","lat":9.9667,"lng":76.2667,"population":851406,"timezone":""},{"id":1838716,"name":"Bucheon-si","asciiName":"Bucheon-si","countryCode":"KR","country":{"en":"South Korea","vi":"Hàn Quốc"},"admin1":"","lat":37.4989,"lng":126.7831,"population":850731,"timezone":""},{"id":1566166,"name":"Thanh Hóa","asciiName":"Thanh Hoa","countryCode":"VN","country":{"en":"Vietnam","vi":"Việt Nam"},"admin1":"","lat":19.8,"lng":105.7667,"population":850000,"timezone":""},{"id":1636722,"name":"Malang","asciiName":"Malang","countryCode":"ID","country":{"en":"Indonesia","vi":"Indonesia"},"admin1":"","lat":-7.9797,"lng":112.6304,"population":847182,"timezone":""},{"id":2028462,"name":"Ulan Bator","asciiName":"Ulan Bator","countryCode":"MN","country":{"en":"Mongolia","vi":"Mông Cổ"},"admin1":"","lat":47.9077,"lng":106.8832,"population":844818,"timezone":""},{"id":1791673,"name":"Weihai","asciiName":"Weihai","countryCode":"CN","country":{"en":"China","vi":"Trung Quốc"},"admin1":"","lat":37.5091,"lng":122.1136,"population":844310,"timezone":""},{"id":1821940,"name":"Takeo","asciiName":"Takeo","countryCode":"KH","country":{"en":"Cambodia","vi":"Campuchia"},"admin1":"","lat":10.9908,"lng":104.785,"population":843931,"timezone":""},{"id":1785412,"name":"Zhabei","asciiName":"Zhabei","countryCode":"CN","country":{"en":"China","vi":"Trung Quốc"},"admin1":"","lat":31.2586,"lng":121.4597,"population":840000,"timezone":""},{"id":1788508,"name":"Xinyu","asciiName":"Xinyu","countryCode":"CN","country":{"en":"China","vi":"Trung Quốc"},"admin1":"","lat":27.8043,"lng":114.9334,"population":839488,"timezone":""},{"id":1786770,"name":"Yibin","asciiName":"Yibin","countryCode":"CN","country":{"en":"China","vi":"Trung Quốc"},"admin1":"","lat":28.7593,"lng":104.6399,"population":836340,"timezone":""},{"id":1771023,"name":"Kampung Baru Subang","asciiName":"Kampung Baru Subang","countryCode":"MY","country":{"en":"Malaysia","vi":"Malaysia"},"admin1":"","lat":3.15,"lng":101.5333,"population":833571,"timezone":""},{"id":1629001,"name":"Samarinda","asciiName":"Samarinda","countryCode":"ID","country":{"en":"Indonesia","vi":"Indonesia"},"admin1":"","lat":-0.4917,"lng":117.1458,"population":831460,"timezone":""},{"id":1793703,"name":"Taicang","asciiName":"Taicang","countryCode":"CN","country":{"en":"China","vi":"Trung Quốc"},"admin1":"","lat":31.4478,"lng":121.0939,"population":831113,"timezone":""},{"id":1853195,"name":"Sakai","asciiName":"Sakai","countryCode":"JP","country":{"en":"Japan","vi":"Nhật Bản"},"admin1":"","lat":34.5822,"lng":135.4665,"population":826161,"timezone":""},{"id":1815059,"name":"Chenzhou","asciiName":"Chenzhou","countryCode":"CN","country":{"en":"China","vi":"Trung Quốc"},"admin1":"","lat":25.8,"lng":113.0333,"population":822534,"timezone":""},{"id":1276014,"name":"Bhayandar","asciiName":"Bhayandar","countryCode":"IN","country":{"en":"India","vi":"Ấn Độ"},"admin1":"","lat":19.3016,"lng":72.8511,"population":809378,"timezone":""},{"id":1735158,"name":"Petaling Jaya","asciiName":"Petaling Jaya","countryCode":"MY","country":{"en":"Malaysia","vi":"Malaysia"},"admin1":"","lat":3.1073,"lng":101.6067,"population":807879,"timezone":""},{"id":1817993,"name":"Anqing","asciiName":"Anqing","countryCode":"CN","country":{"en":"China","vi":"Trung Quốc"},"admin1":"","lat":30.5137,"lng":117.0472,"population":804493,"timezone":""},{"id":1261809,"name":"Narela","asciiName":"Narela","countryCode":"IN","country":{"en":"India","vi":"Ấn Độ"},"admin1":"","lat":28.8527,"lng":77.0929,"population":800000,"timezone":""},{"id":1788927,"name":"Xingtai","asciiName":"Xingtai","countryCode":"CN","country":{"en":"China","vi":"Trung Quốc"},"admin1":"","lat":37.0622,"lng":114.4927,"population":798770,"timezone":""},{"id":1855431,"name":"Niigata","asciiName":"Niigata","countryCode":"JP","country":{"en":"Japan","vi":"Nhật Bản"},"admin1":"","lat":37.9226,"lng":139.0413,"population":797591,"timezone":""},{"id":1863289,"name":"Hamamatsu","asciiName":"Hamamatsu","countryCode":"JP","country":{"en":"Japan","vi":"Nhật Bản"},"admin1":"","lat":34.7,"lng":137.7333,"population":791707,"timezone":""},{"id":1562798,"name":"Vinh","asciiName":"Vinh","countryCode":"VN","country":{"en":"Vietnam","vi":"Việt Nam"},"admin1":"","lat":18.6734,"lng":105.6923,"population":790000,"timezone":""},{"id":1254163,"name":"Thiruvananthapuram","asciiName":"Thiruvananthapuram","countryCode":"IN","country":{"en":"India","vi":"Ấn Độ"},"admin1":"","lat":8.4855,"lng":76.9492,"population":788271,"timezone":""},{"id":1784841,"name":"Zhaotong","asciiName":"Zhaotong","countryCode":"CN","country":{"en":"China","vi":"Trung Quốc"},"admin1":"","lat":27.3167,"lng":103.7167,"population":787845,"timezone":""},{"id":6929460,"name":"Panzhihua","asciiName":"Panzhihua","countryCode":"CN","country":{"en":"China","vi":"Trung Quốc"},"admin1":"","lat":26.5851,"lng":101.7128,"population":787177,"timezone":""},{"id":1814757,"name":"Chuzhou","asciiName":"Chuzhou","countryCode":"CN","country":{"en":"China","vi":"Trung Quốc"},"admin1":"","lat":32.3219,"lng":118.2978,"population":782671,"timezone":""},{"id":1788081,"name":"Xuancheng","asciiName":"Xuancheng","countryCode":"CN","country":{"en":"China","vi":"Trung Quốc"},"admin1":"","lat":30.9525,"lng":118.7553,"population":774332,"timezone":""},{"id":1817720,"name":"Shangyu","asciiName":"Shangyu","countryCode":"CN","country":{"en":"China","vi":"Trung Quốc"},"admin1":"","lat":30.0156,"lng":120.8711,"population":770000,"timezone":""},{"id":1817968,"name":"Anshun","asciiName":"Anshun","countryCode":"CN","country":{"en":"China","vi":"Trung Quốc"},"admin1":"","lat":26.25,"lng":105.9333,"population":765313,"timezone":""},{"id":1185128,"name":"Rajshahi","asciiName":"Rajshahi","countryCode":"BD","country":{"en":"Bangladesh","vi":"Bangladesh"},"admin1":"","lat":24.374,"lng":88.6011,"population":763580,"timezone":""},{"id":1180281,"name":"Dera Ismail Khan","asciiName":"Dera Ismail Khan","countryCode":"PK","country":{"en":"Pakistan","vi":"Pakistan"},"admin1":"","lat":31.8313,"lng":70.9017,"population":763195,"timezone":""},{"id":1790840,"name":"Wuzhou","asciiName":"Wuzhou","countryCode":"CN","country":{"en":"China","vi":"Trung Quốc"},"admin1":"","lat":23.4805,"lng":111.2885,"population":761948,"timezone":""},{"id":1734634,"name":"Ipoh","asciiName":"Ipoh","countryCode":"MY","country":{"en":"Malaysia","vi":"Malaysia"},"admin1":"","lat":4.5841,"lng":101.0829,"population":759952,"timezone":""},{"id":1797595,"name":"Qinhuangdao","asciiName":"Qinhuangdao","countryCode":"CN","country":{"en":"China","vi":"Trung Quốc"},"admin1":"","lat":39.941,"lng":119.5894,"population":759718,"timezone":""},{"id":1279017,"name":"Alīgarh","asciiName":"Aligarh","countryCode":"IN","country":{"en":"India","vi":"Ấn Độ"},"admin1":"","lat":27.8815,"lng":78.0746,"population":753207,"timezone":""},{"id":1816920,"name":"Shaoyang","asciiName":"Shaoyang","countryCode":"CN","country":{"en":"China","vi":"Trung Quốc"},"admin1":"","lat":27.2382,"lng":111.4621,"population":753194,"timezone":""},{"id":8469289,"name":"Ōta","asciiName":"Ota","countryCode":"JP","country":{"en":"Japan","vi":"Nhật Bản"},"admin1":"","lat":35.5613,"lng":139.7161,"population":748081,"timezone":""},{"id":1277013,"name":"Bareilly","asciiName":"Bareilly","countryCode":"IN","country":{"en":"India","vi":"Ấn Độ"},"admin1":"","lat":28.3668,"lng":79.4317,"population":745435,"timezone":""},{"id":2036986,"name":"Hegang","asciiName":"Hegang","countryCode":"CN","country":{"en":"China","vi":"Trung Quốc"},"admin1":"","lat":47.3473,"lng":130.2903,"population":743307,"timezone":""},{"id":1624647,"name":"Tasikmalaya","asciiName":"Tasikmalaya","countryCode":"ID","country":{"en":"Indonesia","vi":"Indonesia"},"admin1":"","lat":-7.3274,"lng":108.2207,"population":741760,"timezone":""},{"id":1721080,"name":"Cagayan de Oro","asciiName":"Cagayan de Oro","countryCode":"PH","country":{"en":"Philippines","vi":"Philippines"},"admin1":"","lat":8.4822,"lng":124.6472,"population":741617,"timezone":""},{"id":1801620,"name":"Ma’anshan","asciiName":"Ma'anshan","countryCode":"CN","country":{"en":"China","vi":"Trung Quốc"},"admin1":"","lat":31.6858,"lng":118.5101,"population":741531,"timezone":""},{"id":1732903,"name":"Shah Alam","asciiName":"Shah Alam","countryCode":"MY","country":{"en":"Malaysia","vi":"Malaysia"},"admin1":"","lat":3.0851,"lng":101.5328,"population":740750,"timezone":""},{"id":12324556,"name":"Shizuishan","asciiName":"Shizuishan","countryCode":"CN","country":{"en":"China","vi":"Trung Quốc"},"admin1":"","lat":38.9808,"lng":106.3892,"population":739400,"timezone":""},{"id":1858421,"name":"Kumamoto","asciiName":"Kumamoto","countryCode":"JP","country":{"en":"Japan","vi":"Nhật Bản"},"admin1":"","lat":32.8059,"lng":130.6918,"population":738907,"timezone":""},{"id":1812961,"name":"Deyang","asciiName":"Deyang","countryCode":"CN","country":{"en":"China","vi":"Trung Quốc"},"admin1":"","lat":31.1302,"lng":104.382,"population":735070,"timezone":""},{"id":1787351,"name":"Yangquan","asciiName":"Yangquan","countryCode":"CN","country":{"en":"China","vi":"Trung Quốc"},"admin1":"","lat":37.8575,"lng":113.5633,"population":731228,"timezone":""},{"id":1865689,"name":"Aihara","asciiName":"Aihara","countryCode":"JP","country":{"en":"Japan","vi":"Nhật Bản"},"admin1":"","lat":35.6,"lng":139.3167,"population":725493,"timezone":""},{"id":1645528,"name":"Denpasar","asciiName":"Denpasar","countryCode":"ID","country":{"en":"Indonesia","vi":"Indonesia"},"admin1":"","lat":-8.65,"lng":115.2167,"population":725314,"timezone":""},{"id":1680102,"name":"Valenzuela","asciiName":"Valenzuela","countryCode":"PH","country":{"en":"Philippines","vi":"Philippines"},"admin1":"","lat":14.7,"lng":120.9667,"population":725173,"timezone":""},{"id":1169607,"name":"Muzaffarābād","asciiName":"Muzaffarabad","countryCode":"PK","country":{"en":"Pakistan","vi":"Pakistan"},"admin1":"","lat":34.37,"lng":73.4708,"population":725000,"timezone":""},{"id":1854383,"name":"Okayama","asciiName":"Okayama","countryCode":"JP","country":{"en":"Japan","vi":"Nhật Bản"},"admin1":"","lat":34.65,"lng":133.9333,"population":724691,"timezone":""},{"id":1713022,"name":"General Santos","asciiName":"General Santos","countryCode":"PH","country":{"en":"Philippines","vi":"Philippines"},"admin1":"","lat":6.1128,"lng":125.1717,"population":722059,"timezone":""},{"id":1783873,"name":"Zhumadian","asciiName":"Zhumadian","countryCode":"CN","country":{"en":"China","vi":"Trung Quốc"},"admin1":"","lat":32.9794,"lng":114.0294,"population":721670,"timezone":""},{"id":1262801,"name":"Morādābād","asciiName":"Moradabad","countryCode":"IN","country":{"en":"India","vi":"Ấn Độ"},"admin1":"","lat":28.8389,"lng":78.7768,"population":721139,"timezone":""},{"id":11611609,"name":"Sagamihara","asciiName":"Sagamihara","countryCode":"JP","country":{"en":"Japan","vi":"Nhật Bản"},"admin1":"","lat":35.5671,"lng":139.2417,"population":720780,"timezone":""},{"id":8504423,"name":"Subang Jaya","asciiName":"Subang Jaya","countryCode":"MY","country":{"en":"Malaysia","vi":"Malaysia"},"admin1":"","lat":3.0438,"lng":101.5806,"population":708296,"timezone":""},{"id":1252948,"name":"Warangal","asciiName":"Warangal","countryCode":"IN","country":{"en":"India","vi":"Ấn Độ"},"admin1":"","lat":18,"lng":79.5833,"population":704570,"timezone":""},{"id":1694781,"name":"Paranaque City","asciiName":"Paranaque City","countryCode":"PH","country":{"en":"Philippines","vi":"Philippines"},"admin1":"","lat":14.4816,"lng":121.0175,"population":703245,"timezone":""},{"id":1183105,"name":"Battagram","asciiName":"Battagram","countryCode":"PK","country":{"en":"Pakistan","vi":"Pakistan"},"admin1":"","lat":34.6772,"lng":73.0233,"population":700000,"timezone":""},{"id":1815463,"name":"Changzhi","asciiName":"Changzhi","countryCode":"CN","country":{"en":"China","vi":"Trung Quốc"},"admin1":"","lat":35.2089,"lng":111.7386,"population":699514,"timezone":""},{"id":11071717,"name":"Edogawe","asciiName":"Edogawe","countryCode":"JP","country":{"en":"Japan","vi":"Nhật Bản"},"admin1":"","lat":35.6923,"lng":139.8731,"population":697932,"timezone":""},{"id":1650527,"name":"Balikpapan","asciiName":"Balikpapan","countryCode":"ID","country":{"en":"Indonesia","vi":"Indonesia"},"admin1":"","lat":-1.2675,"lng":116.8289,"population":695287,"timezone":""},{"id":10987897,"name":"Adachi","asciiName":"Adachi","countryCode":"JP","country":{"en":"Japan","vi":"Nhật Bản"},"admin1":"","lat":35.7632,"lng":139.8076,"population":695043,"timezone":""},{"id":1851717,"name":"Shizuoka","asciiName":"Shizuoka","countryCode":"JP","country":{"en":"Japan","vi":"Nhật Bản"},"admin1":"","lat":34.9833,"lng":138.3833,"population":693389,"timezone":""},{"id":2033196,"name":"Zhangjiakou","asciiName":"Zhangjiakou","countryCode":"CN","country":{"en":"China","vi":"Trung Quốc"},"admin1":"","lat":40.7834,"lng":114.8714,"population":692602,"timezone":""},{"id":1627549,"name":"Serang","asciiName":"Serang","countryCode":"ID","country":{"en":"Indonesia","vi":"Indonesia"},"admin1":"","lat":-6.1153,"lng":106.1542,"population":692101,"timezone":""},{"id":2037346,"name":"Fuxin","asciiName":"Fuxin","countryCode":"CN","country":{"en":"China","vi":"Trung Quốc"},"admin1":"","lat":42.0156,"lng":121.6589,"population":689050,"timezone":""},{"id":1796989,"name":"Changsha","asciiName":"Changsha","countryCode":"CN","country":{"en":"China","vi":"Trung Quốc"},"admin1":"","lat":22.3812,"lng":112.6849,"population":688242,"timezone":""},{"id":1807234,"name":"Huangshi","asciiName":"Huangshi","countryCode":"CN","country":{"en":"China","vi":"Trung Quốc"},"admin1":"","lat":30.2471,"lng":115.0481,"population":688090,"timezone":""},{"id":2036113,"name":"Liaoyang","asciiName":"Liaoyang","countryCode":"CN","country":{"en":"China","vi":"Trung Quốc"},"admin1":"","lat":41.2719,"lng":123.1731,"population":687890,"timezone":""},{"id":8740157,"name":"Hlaingthaya","asciiName":"Hlaingthaya","countryCode":"MM","country":{"en":"Myanmar","vi":"Myanmar"},"admin1":"","lat":16.85,"lng":96.0667,"population":687867,"timezone":""},{"id":1816269,"name":"Baise","asciiName":"Baise","countryCode":"CN","country":{"en":"China","vi":"Trung Quốc"},"admin1":"","lat":23.8901,"lng":106.6268,"population":686078,"timezone":""},{"id":1626801,"name":"Situbondo","asciiName":"Situbondo","countryCode":"ID","country":{"en":"Indonesia","vi":"Indonesia"},"admin1":"","lat":-7.7062,"lng":114.0098,"population":685967,"timezone":""},{"id":1816336,"name":"Binzhou","asciiName":"Binzhou","countryCode":"CN","country":{"en":"China","vi":"Trung Quốc"},"admin1":"","lat":37.3667,"lng":118.0167,"population":682717,"timezone":""},{"id":1785738,"name":"Yuncheng","asciiName":"Yuncheng","countryCode":"CN","country":{"en":"China","vi":"Trung Quốc"},"admin1":"","lat":35.0231,"lng":110.9928,"population":680036,"timezone":""},{"id":1812955,"name":"Dezhou","asciiName":"Dezhou","countryCode":"CN","country":{"en":"China","vi":"Trung Quốc"},"admin1":"","lat":37.4466,"lng":116.3671,"population":679535,"timezone":""},{"id":1270927,"name":"Gorakhpur","asciiName":"Gorakhpur","countryCode":"IN","country":{"en":"India","vi":"Ấn Độ"},"admin1":"","lat":26.7663,"lng":83.3689,"population":674246,"timezone":""},{"id":1270668,"name":"Guntur","asciiName":"Guntur","countryCode":"IN","country":{"en":"India","vi":"Ấn Độ"},"admin1":"","lat":16.2997,"lng":80.4573,"population":670073,"timezone":""},{"id":1796669,"name":"Sanmenxia","asciiName":"Sanmenxia","countryCode":"CN","country":{"en":"China","vi":"Trung Quốc"},"admin1":"","lat":34.7808,"lng":111.1929,"population":669307,"timezone":""},{"id":6642286,"name":"E’zhou","asciiName":"E'zhou","countryCode":"CN","country":{"en":"China","vi":"Trung Quốc"},"admin1":"","lat":30.3961,"lng":114.8866,"population":668727,"timezone":""},{"id":2035715,"name":"Mudanjiang","asciiName":"Mudanjiang","countryCode":"CN","country":{"en":"China","vi":"Trung Quốc"},"admin1":"","lat":44.548,"lng":129.6259,"population":665915,"timezone":""},{"id":1804153,"name":"Leshan","asciiName":"Leshan","countryCode":"CN","country":{"en":"China","vi":"Trung Quốc"},"admin1":"","lat":29.5623,"lng":103.7639,"population":662814,"timezone":""},{"id":9072919,"name":"Rizhao","asciiName":"Rizhao","countryCode":"CN","country":{"en":"China","vi":"Trung Quốc"},"admin1":"","lat":35.4141,"lng":119.5291,"population":661943,"timezone":""},{"id":1845759,"name":"Cheonan","asciiName":"Cheonan","countryCode":"KR","country":{"en":"South Korea","vi":"Hàn Quốc"},"admin1":"","lat":36.8065,"lng":127.1522,"population":658831,"timezone":""},{"id":1630789,"name":"Pontianak","asciiName":"Pontianak","countryCode":"ID","country":{"en":"Indonesia","vi":"Indonesia"},"admin1":"","lat":-0.0319,"lng":109.325,"population":658685,"timezone":""},{"id":1650213,"name":"Banjarmasin","asciiName":"Banjarmasin","countryCode":"ID","country":{"en":"Indonesia","vi":"Indonesia"},"admin1":"","lat":-3.3199,"lng":114.5908,"population":657663,"timezone":""},{"id":1259425,"name":"Puducherry","asciiName":"Puducherry","countryCode":"IN","country":{"en":"India","vi":"Ấn Độ"},"admin1":"","lat":11.9338,"lng":79.8298,"population":657209,"timezone":""},{"id":1793900,"name":"Suining","asciiName":"Suining","countryCode":"CN","country":{"en":"China","vi":"Trung Quốc"},"admin1":"","lat":30.508,"lng":105.5733,"population":656760,"timezone":""},{"id":9181182,"name":"Puyang","asciiName":"Puyang","countryCode":"CN","country":{"en":"China","vi":"Trung Quốc"},"admin1":"","lat":35.7564,"lng":115.0436,"population":655674,"timezone":""},{"id":1821274,"name":"Macau","asciiName":"Macau","countryCode":"MO","country":{"en":"Macau","vi":"Ma Cao"},"admin1":"","lat":22.2006,"lng":113.5461,"population":649335,"timezone":""},{"id":1248991,"name":"Colombo","asciiName":"Colombo","countryCode":"LK","country":{"en":"Sri Lanka","vi":"Sri Lanka"},"admin1":"","lat":6.9355,"lng":79.8487,"population":648034,"timezone":""},{"id":1278718,"name":"Amravati","asciiName":"Amravati","countryCode":"IN","country":{"en":"India","vi":"Ấn Độ"},"admin1":"","lat":20.9333,"lng":77.75,"population":647057,"timezone":""},{"id":1863905,"name":"Honchō","asciiName":"Honcho","countryCode":"JP","country":{"en":"Japan","vi":"Nhật Bản"},"admin1":"","lat":35.7013,"lng":139.9865,"population":644668,"timezone":""},{"id":1275665,"name":"Bikaner","asciiName":"Bikaner","countryCode":"IN","country":{"en":"India","vi":"Ấn Độ"},"admin1":"","lat":28.0176,"lng":73.315,"population":644406,"timezone":""},{"id":1843847,"name":"Hwaseong-si","asciiName":"Hwaseong-si","countryCode":"KR","country":{"en":"South Korea","vi":"Hàn Quốc"},"admin1":"","lat":37.2068,"lng":126.8169,"population":640890,"timezone":""},{"id":2165087,"name":"Gold Coast","asciiName":"Gold Coast","countryCode":"AU","country":{"en":"Australia","vi":"Úc"},"admin1":"","lat":-28.0003,"lng":153.4309,"population":640778,"timezone":""},{"id":1808770,"name":"Hebi","asciiName":"Hebi","countryCode":"CN","country":{"en":"China","vi":"Trung Quốc"},"admin1":"","lat":35.7323,"lng":114.2862,"population":634721,"timezone":""},{"id":1273874,"name":"Kochi","asciiName":"Kochi","countryCode":"IN","country":{"en":"India","vi":"Ấn Độ"},"admin1":"","lat":9.9399,"lng":76.2602,"population":633553,"timezone":""},{"id":1805611,"name":"Jingmen","asciiName":"Jingmen","countryCode":"CN","country":{"en":"China","vi":"Trung Quốc"},"admin1":"","lat":31.0336,"lng":112.2047,"population":632954,"timezone":""},{"id":2037886,"name":"Dandong","asciiName":"Dandong","countryCode":"CN","country":{"en":"China","vi":"Trung Quốc"},"admin1":"","lat":40.1292,"lng":124.3947,"population":631973,"timezone":""},{"id":1845457,"name":"Jeonju","asciiName":"Jeonju","countryCode":"KR","country":{"en":"South Korea","vi":"Hàn Quốc"},"admin1":"","lat":35.8219,"lng":127.1489,"population":629618,"timezone":""},{"id":1275971,"name":"Bhilai","asciiName":"Bhilai","countryCode":"IN","country":{"en":"India","vi":"Ấn Độ"},"admin1":"","lat":21.2092,"lng":81.4285,"population":627734,"timezone":""},{"id":2035513,"name":"Panshan","asciiName":"Panshan","countryCode":"CN","country":{"en":"China","vi":"Trung Quốc"},"admin1":"","lat":41.1881,"lng":122.0494,"population":625040,"timezone":""},{"id":1846918,"name":"Ansan-si","asciiName":"Ansan-si","countryCode":"KR","country":{"en":"South Korea","vi":"Hàn Quốc"},"admin1":"","lat":37.3236,"lng":126.8219,"population":623256,"timezone":""},{"id":1806096,"name":"Jiaozhou","asciiName":"Jiaozhou","countryCode":"CN","country":{"en":"China","vi":"Trung Quốc"},"admin1":"","lat":36.2839,"lng":120.0033,"population":619266,"timezone":""},{"id":1793879,"name":"Suizhou","asciiName":"Suizhou","countryCode":"CN","country":{"en":"China","vi":"Trung Quốc"},"admin1":"","lat":31.7111,"lng":113.3631,"population":618582,"timezone":""},{"id":1707174,"name":"Las Piñas","asciiName":"Las Pinas","countryCode":"PH","country":{"en":"Philippines","vi":"Philippines"},"admin1":"","lat":14.4506,"lng":120.9828,"population":615549,"timezone":""},{"id":1814934,"name":"Chizhou","asciiName":"Chizhou","countryCode":"CN","country":{"en":"China","vi":"Trung Quốc"},"admin1":"","lat":30.6613,"lng":117.4778,"population":615274,"timezone":""},{"id":1787816,"name":"Ya'an","asciiName":"Ya'an","countryCode":"CN","country":{"en":"China","vi":"Trung Quốc"},"admin1":"","lat":29.9852,"lng":102.999,"population":612056,"timezone":""},{"id":1273780,"name":"Cuttack","asciiName":"Cuttack","countryCode":"IN","country":{"en":"India","vi":"Ấn Độ"},"admin1":"","lat":20.465,"lng":85.8793,"population":610189,"timezone":""},{"id":1275248,"name":"Borivli","asciiName":"Borivli","countryCode":"IN","country":{"en":"India","vi":"Ấn Độ"},"admin1":"","lat":19.235,"lng":72.8598,"population":609617,"timezone":""},{"id":1859730,"name":"Kawaguchi","asciiName":"Kawaguchi","countryCode":"JP","country":{"en":"Japan","vi":"Nhật Bản"},"admin1":"","lat":35.8052,"lng":139.7107,"population":607373,"timezone":""},{"id":13118225,"name":"Bukit Rahman Putra","asciiName":"Bukit Rahman Putra","countryCode":"MY","country":{"en":"Malaysia","vi":"Malaysia"},"admin1":"","lat":3.2173,"lng":101.5608,"population":607000,"timezone":""},{"id":1642858,"name":"Jambi City","asciiName":"Jambi City","countryCode":"ID","country":{"en":"Indonesia","vi":"Indonesia"},"admin1":"","lat":-1.6,"lng":103.6167,"population":606200,"timezone":""},{"id":1276032,"name":"Bhavnagar","asciiName":"Bhavnagar","countryCode":"IN","country":{"en":"India","vi":"Ấn Độ"},"admin1":"","lat":21.7629,"lng":72.1533,"population":605882,"timezone":""},{"id":2036427,"name":"Jinzhou","asciiName":"Jinzhou","countryCode":"CN","country":{"en":"China","vi":"Trung Quốc"},"admin1":"","lat":41.1078,"lng":121.1417,"population":604269,"timezone":""},{"id":1796663,"name":"Sanming","asciiName":"Sanming","countryCode":"CN","country":{"en":"China","vi":"Trung Quốc"},"admin1":"","lat":26.2486,"lng":117.6186,"population":602166,"timezone":""},{"id":1176615,"name":"Islamabad","asciiName":"Islamabad","countryCode":"PK","country":{"en":"Pakistan","vi":"Pakistan"},"admin1":"","lat":33.7215,"lng":73.0433,"population":601600,"timezone":""},{"id":1257416,"name":"Sāngli","asciiName":"Sangli","countryCode":"IN","country":{"en":"India","vi":"Ấn Độ"},"admin1":"","lat":16.8544,"lng":74.5642,"population":601214,"timezone":""},{"id":1269317,"name":"Jamnagar","asciiName":"Jamnagar","countryCode":"IN","country":{"en":"India","vi":"Ấn Độ"},"admin1":"","lat":22.4729,"lng":70.0667,"population":600943,"timezone":""},{"id":1282898,"name":"Pokhara","asciiName":"Pokhara","countryCode":"NP","country":{"en":"Nepal","vi":"Nepal"},"admin1":"","lat":28.2669,"lng":83.9685,"population":600051,"timezone":""},{"id":2034786,"name":"Shuangyashan","asciiName":"Shuangyashan","countryCode":"CN","country":{"en":"China","vi":"Trung Quốc"},"admin1":"","lat":46.6769,"lng":131.1327,"population":600000,"timezone":""},{"id":7696679,"name":"Pallabi","asciiName":"Pallabi","countryCode":"BD","country":{"en":"Bangladesh","vi":"Bangladesh"},"admin1":"","lat":23.825,"lng":90.37,"population":597574,"timezone":""},{"id":1802204,"name":"Luancheng","asciiName":"Luancheng","countryCode":"CN","country":{"en":"China","vi":"Trung Quốc"},"admin1":"","lat":37.8845,"lng":114.6463,"population":597130,"timezone":""},{"id":1846898,"name":"Anyang-si","asciiName":"Anyang-si","countryCode":"KR","country":{"en":"South Korea","vi":"Hàn Quốc"},"admin1":"","lat":37.3925,"lng":126.9269,"population":595644,"timezone":""},{"id":13512502,"name":"Mengzi","asciiName":"Mengzi","countryCode":"CN","country":{"en":"China","vi":"Trung Quốc"},"admin1":"","lat":23.3678,"lng":103.3821,"population":595100,"timezone":""},{"id":1860827,"name":"Kagoshima","asciiName":"Kagoshima","countryCode":"JP","country":{"en":"Japan","vi":"Nhật Bản"},"admin1":"","lat":31.5667,"lng":130.55,"population":595049,"timezone":""},{"id":1165221,"name":"Shekhupura","asciiName":"Shekhupura","countryCode":"PK","country":{"en":"Pakistan","vi":"Pakistan"},"admin1":"","lat":31.7129,"lng":73.9856,"population":591424,"timezone":""},{"id":2033370,"name":"Yingkou","asciiName":"Yingkou","countryCode":"CN","country":{"en":"China","vi":"Trung Quốc"},"admin1":"","lat":40.6647,"lng":122.2318,"population":591159,"timezone":""},{"id":1646448,"name":"Cimahi","asciiName":"Cimahi","countryCode":"ID","country":{"en":"Indonesia","vi":"Indonesia"},"admin1":"","lat":-6.8722,"lng":107.5425,"population":590782,"timezone":""},{"id":1785018,"name":"Zhangzhou","asciiName":"Zhangzhou","countryCode":"CN","country":{"en":"China","vi":"Trung Quốc"},"admin1":"","lat":24.5133,"lng":117.6556,"population":589831,"timezone":""},{"id":12382296,"name":"Thuận An","asciiName":"Thuan An","countryCode":"VN","country":{"en":"Vietnam","vi":"Việt Nam"},"admin1":"","lat":10.9239,"lng":106.7143,"population":588616,"timezone":""},{"id":11836117,"name":"Suginami","asciiName":"Suginami","countryCode":"JP","country":{"en":"Japan","vi":"Nhật Bản"},"admin1":"","lat":36.2013,"lng":140.2841,"population":588354,"timezone":""},{"id":1861321,"name":"Itabashi","asciiName":"Itabashi","countryCode":"JP","country":{"en":"Japan","vi":"Nhật Bản"},"admin1":"","lat":35.7489,"lng":139.715,"population":584483,"timezone":""},{"id":1732747,"name":"Pelentong","asciiName":"Pelentong","countryCode":"MY","country":{"en":"Malaysia","vi":"Malaysia"},"admin1":"","lat":1.5243,"lng":103.824,"population":583640,"timezone":""},{"id":1863440,"name":"Hachiōji","asciiName":"Hachioji","countryCode":"JP","country":{"en":"Japan","vi":"Nhật Bản"},"admin1":"","lat":35.6558,"lng":139.3239,"population":579355,"timezone":""},{"id":1734759,"name":"Malacca","asciiName":"Malacca","countryCode":"MY","country":{"en":"Malaysia","vi":"Malaysia"},"admin1":"","lat":2.196,"lng":102.2405,"population":579000,"timezone":""},{"id":1572151,"name":"Nha Trang","asciiName":"Nha Trang","countryCode":"VN","country":{"en":"Vietnam","vi":"Việt Nam"},"admin1":"","lat":12.2451,"lng":109.1943,"population":579000,"timezone":""},{"id":1269321,"name":"Jammu","asciiName":"Jammu","countryCode":"IN","country":{"en":"India","vi":"Ấn Độ"},"admin1":"","lat":32.7353,"lng":74.8617,"population":576198,"timezone":""},{"id":10063567,"name":"Iskandar Puteri","asciiName":"Iskandar Puteri","countryCode":"MY","country":{"en":"Malaysia","vi":"Malaysia"},"admin1":"","lat":1.3932,"lng":103.6232,"population":575977,"timezone":""},{"id":1720681,"name":"Calamba","asciiName":"Calamba","countryCode":"PH","country":{"en":"Philippines","vi":"Philippines"},"admin1":"","lat":14.2117,"lng":121.1653,"population":575046,"timezone":""},{"id":1177654,"name":"Gujrat","asciiName":"Gujrat","countryCode":"PK","country":{"en":"Pakistan","vi":"Pakistan"},"admin1":"","lat":32.5742,"lng":74.0754,"population":574240,"timezone":""},{"id":1529195,"name":"Shihezi","asciiName":"Shihezi","countryCode":"CN","country":{"en":"China","vi":"Trung Quốc"},"admin1":"","lat":44.3023,"lng":86.0369,"population":572772,"timezone":""},{"id":1736376,"name":"Kota Bharu","asciiName":"Kota Bharu","countryCode":"MY","country":{"en":"Malaysia","vi":"Malaysia"},"admin1":"","lat":6.1236,"lng":102.2433,"population":568900,"timezone":""},{"id":1275362,"name":"Bokāro","asciiName":"Bokaro","countryCode":"IN","country":{"en":"India","vi":"Ấn Độ"},"admin1":"","lat":23.6693,"lng":86.1516,"population":564319,"timezone":""},{"id":1164408,"name":"Sukkur","asciiName":"Sukkur","countryCode":"PK","country":{"en":"Pakistan","vi":"Pakistan"},"admin1":"","lat":27.7032,"lng":68.8589,"population":563851,"timezone":""},{"id":1585330,"name":"Chợ Lớn","asciiName":"Cho Lon","countryCode":"VN","country":{"en":"Vietnam","vi":"Việt Nam"},"admin1":"","lat":10.75,"lng":106.65,"population":561000,"timezone":""},{"id":1791544,"name":"Wenchang","asciiName":"Wenchang","countryCode":"CN","country":{"en":"China","vi":"Trung Quốc"},"admin1":"","lat":19.5516,"lng":110.8028,"population":560894,"timezone":""},{"id":2034714,"name":"Siping","asciiName":"Siping","countryCode":"CN","country":{"en":"China","vi":"Trung Quốc"},"admin1":"","lat":43.1614,"lng":124.3779,"population":555609,"timezone":""},{"id":1814760,"name":"Chuxiong","asciiName":"Chuxiong","countryCode":"CN","country":{"en":"China","vi":"Trung Quốc"},"admin1":"","lat":25.0364,"lng":101.5456,"population":555081,"timezone":""},{"id":1807689,"name":"Huaihua","asciiName":"Huaihua","countryCode":"CN","country":{"en":"China","vi":"Trung Quốc"},"admin1":"","lat":27.5634,"lng":110.004,"population":552622,"timezone":""},{"id":1904564,"name":"Bình Thạnh","asciiName":"Binh Thanh","countryCode":"VN","country":{"en":"Vietnam","vi":"Việt Nam"},"admin1":"","lat":10.811,"lng":106.706,"population":552164,"timezone":""},{"id":1670029,"name":"Banqiao","asciiName":"Banqiao","countryCode":"TW","country":{"en":"Taiwan","vi":"Đài Loan"},"admin1":"","lat":25.0143,"lng":121.4672,"population":551221,"timezone":""},